CODGEO,postcode,town_fullname,town_name,latitude,longitude,code_departement,departement_name,code_region,region_name
1001,1400,L'Abergement-Clémenciat,Abergement-Clémenciat,46.1534255214,4.92611354223,1,Ain,84.0,Auvergne-Rhône-Alpes
1002,1640,L'Abergement-de-Varey,Abergement-de-Varey,46.0091878776,5.42801696363,1,Ain,84.0,Auvergne-Rhône-Alpes
1004,1500,Ambérieu-en-Bugey,Ambérieu-en-Bugey,45.9608475114,5.3729257777,1,Ain,84.0,Auvergne-Rhône-Alpes
1005,1330,Ambérieux-en-Dombes,Ambérieux-en-Dombes,45.9961799872,4.91227250796,1,Ain,84.0,Auvergne-Rhône-Alpes
1006,1300,Ambléon,Ambléon,45.7494989044,5.59432017366,1,Ain,84.0,Auvergne-Rhône-Alpes
1007,1500,Ambronay,Ambronay,46.0055913782,5.35760660735,1,Ain,84.0,Auvergne-Rhône-Alpes
1008,1500,Ambutrix,Ambutrix,45.9367134524,5.3328092349,1,Ain,84.0,Auvergne-Rhône-Alpes
1009,1300,Andert-et-Condon,Andert-et-Condon,45.7873565333,5.65788307924,1,Ain,84.0,Auvergne-Rhône-Alpes
1010,1350,Anglefort,Anglefort,45.9093715116,5.79516005674,1,Ain,84.0,Auvergne-Rhône-Alpes
1011,1100,Apremont,Apremont,46.2054981558,5.65781475272,1,Ain,84.0,Auvergne-Rhône-Alpes
1012,1110,Aranc,Aranc,46.0015344029,5.51130637511,1,Ain,84.0,Auvergne-Rhône-Alpes
1013,1230,Arandas,Arandas,45.8908155275,5.49870439091,1,Ain,84.0,Auvergne-Rhône-Alpes
1014,1100,Arbent,Arbent,46.2834936005,5.69061651221,1,Ain,84.0,Auvergne-Rhône-Alpes
1015,1300,Arboys en Bugey,Arboys en Bugey,45.7237621545,5.65263086429,1,Ain,84.0,Auvergne-Rhône-Alpes
1016,1190,Arbigny,Arbigny,46.4776762988,4.9599416863,1,Ain,84.0,Auvergne-Rhône-Alpes
1017,1230,Argis,Argis,45.9337182132,5.48251100314,1,Ain,84.0,Auvergne-Rhône-Alpes
1019,1510,Armix,Armix,45.8541838459,5.58357838695,1,Ain,84.0,Auvergne-Rhône-Alpes
1021,1480,Ars-sur-Formans,Ars-sur-Formans,45.9934611,4.82199649494,1,Ain,84.0,Auvergne-Rhône-Alpes
1022,1510,Artemare,Artemare,45.8695891748,5.69065283943,1,Ain,84.0,Auvergne-Rhône-Alpes
1023,1570,Asnières-sur-Saône,Asnières-sur-Saône,46.3857281418,4.88387478623,1,Ain,84.0,Auvergne-Rhône-Alpes
1024,1340,Attignat,Attignat,46.2861802203,5.1795233845,1,Ain,84.0,Auvergne-Rhône-Alpes
1025,1380,Bâgé-Dommartin,Bâgé-Dommartin,46.3233203302,4.9528678933,1,Ain,84.0,Auvergne-Rhône-Alpes
1026,1380,Bâgé-le-Châtel,Bâgé-le-Châtel,46.3077069231,4.92862084189,1,Ain,84.0,Auvergne-Rhône-Alpes
1027,1360,Balan,Balan,45.8311226453,5.10780019249,1,Ain,84.0,Auvergne-Rhône-Alpes
1028,1990,Baneins,Baneins,46.1141214445,4.90146475101,1,Ain,84.0,Auvergne-Rhône-Alpes
1029,1270,Beaupont,Beaupont,46.4288360203,5.26003405676,1,Ain,84.0,Auvergne-Rhône-Alpes
1030,1480,Beauregard,Beauregard,46.0008580204,4.75600664694,1,Ain,84.0,Auvergne-Rhône-Alpes
1031,1100,Bellignat,Bellignat,46.2373497134,5.6360052884,1,Ain,84.0,Auvergne-Rhône-Alpes
1032,1360,Béligneux,Béligneux,45.8591464826,5.13989505865,1,Ain,84.0,Auvergne-Rhône-Alpes
1033,1200,Bellegarde-sur-Valserine,Bellegarde-sur-Valserine,46.1067901755,5.83202736464,1,Ain,84.0,Auvergne-Rhône-Alpes
1034,1300,Belley,Belley,45.7494697806,5.68412365526,1,Ain,84.0,Auvergne-Rhône-Alpes
1035,1130,Belleydoux,Belleydoux,46.2530316409,5.78471723698,1,Ain,84.0,Auvergne-Rhône-Alpes
1036,1260,Belmont-Luthézieu,Belmont-Luthézieu,45.8847475883,5.65115788055,1,Ain,84.0,Auvergne-Rhône-Alpes
1037,1470,Bénonces,Bénonces,45.8374974718,5.48285330863,1,Ain,84.0,Auvergne-Rhône-Alpes
1038,1370,Bény,Bény,46.3188629218,5.28253433405,1,Ain,84.0,Auvergne-Rhône-Alpes
1039,1350,Béon,Béon,45.8568920052,5.75220315052,1,Ain,84.0,Auvergne-Rhône-Alpes
1040,1340,Béréziat,Béréziat,46.3674371012,5.04021655965,1,Ain,84.0,Auvergne-Rhône-Alpes
1041,1500,Bettant,Bettant,45.9368718303,5.36667617009,1,Ain,84.0,Auvergne-Rhône-Alpes
1042,1290,Bey,Bey,46.2191748844,4.84642690241,1,Ain,84.0,Auvergne-Rhône-Alpes
1043,1700,Beynost,Beynost,45.8390325448,4.99738002182,1,Ain,84.0,Auvergne-Rhône-Alpes
1044,1200,Billiat,Billiat,46.0791346715,5.76591818163,1,Ain,84.0,Auvergne-Rhône-Alpes
1045,1330,Birieux,Birieux,45.9533995502,5.03666479984,1,Ain,84.0,Auvergne-Rhône-Alpes
1046,1290,Biziat,Biziat,46.2266794269,4.94084673168,1,Ain,84.0,Auvergne-Rhône-Alpes
1047,1150,Blyes,Blyes,45.8469686113,5.25166055884,1,Ain,84.0,Auvergne-Rhône-Alpes
1049,1120,La Boisse,Boisse,45.8446213549,5.02783224111,1,Ain,84.0,Auvergne-Rhône-Alpes
1050,1190,Boissey,Boissey,46.3727973545,4.9989764059,1,Ain,84.0,Auvergne-Rhône-Alpes
1050,1380,Boissey,Boissey,46.3727973545,4.9989764059,1,Ain,84.0,Auvergne-Rhône-Alpes
1051,1450,Bolozon,Bolozon,46.1960338503,5.47095075411,1,Ain,84.0,Auvergne-Rhône-Alpes
1052,1330,Bouligneux,Bouligneux,46.0232774841,4.99252709276,1,Ain,84.0,Auvergne-Rhône-Alpes
1053,1000,Bourg-en-Bresse,Bourg-en-Bresse,46.2051520382,5.24602125501,1,Ain,84.0,Auvergne-Rhône-Alpes
1054,1800,Bourg-Saint-Christophe,Bourg-Saint-Christophe,45.8861934456,5.14349196896,1,Ain,84.0,Auvergne-Rhône-Alpes
1056,1640,Boyeux-Saint-Jérôme,Boyeux-Saint-Jérôme,46.0363677631,5.46322744717,1,Ain,84.0,Auvergne-Rhône-Alpes
1057,1190,Boz,Boz,46.4051688134,4.9135797178,1,Ain,84.0,Auvergne-Rhône-Alpes
1058,1300,Brégnier-Cordon,Brégnier-Cordon,45.6416854652,5.61653371,1,Ain,84.0,Auvergne-Rhône-Alpes
1059,1260,Brénaz,Brénaz,45.9500082947,5.7371892334,1,Ain,84.0,Auvergne-Rhône-Alpes
1060,1110,Brénod,Brénod,46.0759940484,5.61418361314,1,Ain,84.0,Auvergne-Rhône-Alpes
1061,1300,Brens,Brens,45.7135069062,5.68998154517,1,Ain,84.0,Auvergne-Rhône-Alpes
1062,1360,Bressolles,Bressolles,45.869423064,5.1009428902,1,Ain,84.0,Auvergne-Rhône-Alpes
1063,1460,Brion,Brion,46.1686327301,5.54656422194,1,Ain,84.0,Auvergne-Rhône-Alpes
1064,1470,Briord,Briord,45.7708330939,5.48537461884,1,Ain,84.0,Auvergne-Rhône-Alpes
1065,1310,Buellas,Buellas,46.2104135162,5.14487465017,1,Ain,84.0,Auvergne-Rhône-Alpes
1066,1510,La Burbanche,Burbanche,45.8598709332,5.54609714598,1,Ain,84.0,Auvergne-Rhône-Alpes
1067,1430,Ceignes,Ceignes,46.1256533435,5.49457379202,1,Ain,84.0,Auvergne-Rhône-Alpes
1068,1450,Cerdon,Cerdon,46.0720202633,5.47577586118,1,Ain,84.0,Auvergne-Rhône-Alpes
1069,1240,Certines,Certines,46.1337950959,5.26239539372,1,Ain,84.0,Auvergne-Rhône-Alpes
1071,1170,Cessy,Cessy,46.315689376,6.0779844362,1,Ain,84.0,Auvergne-Rhône-Alpes
1072,1250,Ceyzériat,Ceyzériat,46.1832170988,5.32007207542,1,Ain,84.0,Auvergne-Rhône-Alpes
1073,1350,Ceyzérieu,Ceyzérieu,45.8335530148,5.71933090966,1,Ain,84.0,Auvergne-Rhône-Alpes
1074,1320,Chalamont,Chalamont,46.0076491739,5.16936568,1,Ain,84.0,Auvergne-Rhône-Alpes
1075,1480,Chaleins,Chaleins,46.0340545373,4.79853838574,1,Ain,84.0,Auvergne-Rhône-Alpes
1076,1230,Chaley,Chaley,45.9533367734,5.53682505273,1,Ain,84.0,Auvergne-Rhône-Alpes
1077,1450,Challes-la-Montagne,Challes-la-Montagne,46.1221539654,5.45755377201,1,Ain,84.0,Auvergne-Rhône-Alpes
1078,1630,Challex,Challex,46.1768358327,5.97115092939,1,Ain,84.0,Auvergne-Rhône-Alpes
1079,1260,Champagne-en-Valromey,Champagne-en-Valromey,45.9316447397,5.69321890072,1,Ain,84.0,Auvergne-Rhône-Alpes
1080,1110,Champdor-Corcelles,Champdor-Corcelles,46.0198844188,5.60008759722,1,Ain,84.0,Auvergne-Rhône-Alpes
1081,1410,Champfromier,Champfromier,46.220365768,5.82233573131,1,Ain,84.0,Auvergne-Rhône-Alpes
1082,1420,Chanay,Chanay,46.005695299,5.76893393185,1,Ain,84.0,Auvergne-Rhône-Alpes
1083,1990,Chaneins,Chaneins,46.0934984191,4.85473364691,1,Ain,84.0,Auvergne-Rhône-Alpes
1084,1400,Chanoz-Châtenay,Chanoz-Châtenay,46.1861812234,5.02807719246,1,Ain,84.0,Auvergne-Rhône-Alpes
1085,1240,La Chapelle-du-Châtelard,Chapelle-du-Châtelard,46.0744536905,5.02162055898,1,Ain,84.0,Auvergne-Rhône-Alpes
1087,1130,Charix,Charix,46.1856344066,5.6811896084,1,Ain,84.0,Auvergne-Rhône-Alpes
1088,1800,Charnoz-sur-Ain,Charnoz-sur-Ain,45.8736786869,5.2211032563,1,Ain,84.0,Auvergne-Rhône-Alpes
1089,1500,Château-Gaillard,Château-Gaillard,45.9730390239,5.30754273532,1,Ain,84.0,Auvergne-Rhône-Alpes
1090,1320,Châtenay,Châtenay,46.0259402155,5.2048590395,1,Ain,84.0,Auvergne-Rhône-Alpes
1091,1200,Châtillon-en-Michaille,Châtillon-en-Michaille,46.1293337743,5.770176021,1,Ain,84.0,Auvergne-Rhône-Alpes
1092,1320,Châtillon-la-Palud,Châtillon-la-Palud,45.9748017433,5.2416027725,1,Ain,84.0,Auvergne-Rhône-Alpes
1093,1400,Châtillon-sur-Chalaronne,Châtillon-sur-Chalaronne,46.1232390685,4.95810003714,1,Ain,84.0,Auvergne-Rhône-Alpes
1094,1190,Chavannes-sur-Reyssouze,Chavannes-sur-Reyssouze,46.4379785193,5.00693749662,1,Ain,84.0,Auvergne-Rhône-Alpes
1095,1250,Nivigne et Suran,Nivigne et Suran,46.2750157946,5.41649423093,1,Ain,84.0,Auvergne-Rhône-Alpes
1096,1660,Chaveyriat,Chaveyriat,46.1991513767,5.0564069258,1,Ain,84.0,Auvergne-Rhône-Alpes
1097,1510,Chavornay,Chavornay,45.8824049535,5.72499814516,1,Ain,84.0,Auvergne-Rhône-Alpes
1098,1300,Chazey-Bons,Chazey-Bons,45.7925770617,5.68477063188,1,Ain,84.0,Auvergne-Rhône-Alpes
1099,1150,Chazey-sur-Ain,Chazey-sur-Ain,45.8929448968,5.25528498524,1,Ain,84.0,Auvergne-Rhône-Alpes
1100,1510,Cheignieu-la-Balme,Cheignieu-la-Balme,45.8227204334,5.6050023969,1,Ain,84.0,Auvergne-Rhône-Alpes
1101,1430,Chevillard,Chevillard,46.1103512578,5.58116056005,1,Ain,84.0,Auvergne-Rhône-Alpes
1102,1190,Chevroux,Chevroux,46.38249255,4.96288275972,1,Ain,84.0,Auvergne-Rhône-Alpes
1103,1170,Chevry,Chevry,46.283152935,6.04707941462,1,Ain,84.0,Auvergne-Rhône-Alpes
1104,1200,Chézery-Forens,Chézery-Forens,46.222573373,5.87248105275,1,Ain,84.0,Auvergne-Rhône-Alpes
1104,1410,Chézery-Forens,Chézery-Forens,46.222573373,5.87248105275,1,Ain,84.0,Auvergne-Rhône-Alpes
1105,1390,Civrieux,Civrieux,45.922467454,4.88633786877,1,Ain,84.0,Auvergne-Rhône-Alpes
1106,1250,Cize,Cize,46.2003848172,5.45082526739,1,Ain,84.0,Auvergne-Rhône-Alpes
1107,1230,Cleyzieu,Cleyzieu,45.902146623,5.43272695486,1,Ain,84.0,Auvergne-Rhône-Alpes
1108,1270,Coligny,Coligny,46.3866637865,5.3308227014,1,Ain,84.0,Auvergne-Rhône-Alpes
1109,1550,Collonges,Collonges,46.1419227898,5.90040256654,1,Ain,84.0,Auvergne-Rhône-Alpes
1110,1300,Colomieu,Colomieu,45.7361469025,5.62670101041,1,Ain,84.0,Auvergne-Rhône-Alpes
1111,1230,Conand,Conand,45.8834810846,5.47541328981,1,Ain,84.0,Auvergne-Rhône-Alpes
1112,1430,Condamine,Condamine,46.105831161,5.55568206762,1,Ain,84.0,Auvergne-Rhône-Alpes
1113,1400,Condeissiat,Condeissiat,46.1538469834,5.08437171701,1,Ain,84.0,Auvergne-Rhône-Alpes
1114,1200,Confort,Confort,46.1543700156,5.83319395258,1,Ain,84.0,Auvergne-Rhône-Alpes
1115,1310,Confrançon,Confrançon,46.270304175,5.05775217893,1,Ain,84.0,Auvergne-Rhône-Alpes
1116,1300,Contrevoz,Contrevoz,45.8009403071,5.62087768159,1,Ain,84.0,Auvergne-Rhône-Alpes
1117,1300,Conzieu,Conzieu,45.7253102173,5.60442351043,1,Ain,84.0,Auvergne-Rhône-Alpes
1118,1420,Corbonod,Corbonod,45.9659473187,5.78961970355,1,Ain,84.0,Auvergne-Rhône-Alpes
1121,1110,Corlier,Corlier,46.0336885573,5.49635755029,1,Ain,84.0,Auvergne-Rhône-Alpes
1122,1110,Cormaranche-en-Bugey,Cormaranche-en-Bugey,45.9442772826,5.60860828487,1,Ain,84.0,Auvergne-Rhône-Alpes
1123,1290,Cormoranche-sur-Saône,Cormoranche-sur-Saône,46.2403530179,4.8276569593,1,Ain,84.0,Auvergne-Rhône-Alpes
1124,1560,Cormoz,Cormoz,46.4336632942,5.22181275755,1,Ain,84.0,Auvergne-Rhône-Alpes
1125,1250,Corveissiat,Corveissiat,46.2505107235,5.47152467919,1,Ain,84.0,Auvergne-Rhône-Alpes
1127,1370,Courmangoux,Courmangoux,46.3267864521,5.35558241812,1,Ain,84.0,Auvergne-Rhône-Alpes
1128,1560,Courtes,Courtes,46.4570082032,5.11128546723,1,Ain,84.0,Auvergne-Rhône-Alpes
1129,1320,Crans,Crans,45.9663793103,5.19490390871,1,Ain,84.0,Auvergne-Rhône-Alpes
1130,1340,Cras-sur-Reyssouze,Cras-sur-Reyssouze,46.3130831891,5.17796707174,1,Ain,84.0,Auvergne-Rhône-Alpes
1133,1350,Cressin-Rochefort,Cressin-Rochefort,45.7826434885,5.76546256637,1,Ain,84.0,Auvergne-Rhône-Alpes
1134,1290,Crottet,Crottet,46.283072336,4.87747971182,1,Ain,84.0,Auvergne-Rhône-Alpes
1134,1750,Crottet,Crottet,46.283072336,4.87747971182,1,Ain,84.0,Auvergne-Rhône-Alpes
1135,1170,Crozet,Crozet,46.2915659686,5.99510417092,1,Ain,84.0,Auvergne-Rhône-Alpes
1136,1290,Cruzilles-lès-Mépillat,Cruzilles-lès-Mépillat,46.2220588715,4.8752193513,1,Ain,84.0,Auvergne-Rhône-Alpes
1138,1350,Culoz,Culoz,45.8559966843,5.78398308932,1,Ain,84.0,Auvergne-Rhône-Alpes
1139,1560,Curciat-Dongalon,Curciat-Dongalon,46.4885456881,5.16344336837,1,Ain,84.0,Auvergne-Rhône-Alpes
1140,1310,Curtafond,Curtafond,46.273150382,5.1020896267,1,Ain,84.0,Auvergne-Rhône-Alpes
1141,1300,Cuzieu,Cuzieu,45.8200002803,5.6765554896,1,Ain,84.0,Auvergne-Rhône-Alpes
1142,1120,Dagneux,Dagneux,45.8531616918,5.07289166803,1,Ain,84.0,Auvergne-Rhône-Alpes
1143,1220,Divonne-les-Bains,Divonne-les-Bains,46.3756333495,6.1158647611,1,Ain,84.0,Auvergne-Rhône-Alpes
1144,1380,Dommartin,Dommartin,46.33627762,4.99863894,1,Ain,84.0,Auvergne-Rhône-Alpes
1145,1240,Dompierre-sur-Veyle,Dompierre-sur-Veyle,46.0667883703,5.21665199666,1,Ain,84.0,Auvergne-Rhône-Alpes
1146,1400,Dompierre-sur-Chalaronne,Dompierre-sur-Chalaronne,46.1415406621,4.90141714714,1,Ain,84.0,Auvergne-Rhône-Alpes
1147,1270,Domsure,Domsure,46.4244066427,5.29313479651,1,Ain,84.0,Auvergne-Rhône-Alpes
1148,1590,Dortan,Dortan,46.3133221173,5.64146584117,1,Ain,84.0,Auvergne-Rhône-Alpes
1149,1500,Douvres,Douvres,45.984297392,5.37106901673,1,Ain,84.0,Auvergne-Rhône-Alpes
1150,1250,Drom,Drom,46.2196603059,5.36799994918,1,Ain,84.0,Auvergne-Rhône-Alpes
1151,1160,Druillat,Druillat,46.067579544,5.29361666429,1,Ain,84.0,Auvergne-Rhône-Alpes
1152,1130,Échallon,Échallon,46.2271364137,5.73330448395,1,Ain,84.0,Auvergne-Rhône-Alpes
1153,1170,Échenevex,Échenevex,46.3160845207,6.01926187996,1,Ain,84.0,Auvergne-Rhône-Alpes
1154,1340,Étrez,Étrez,46.3380891758,5.19286414645,1,Ain,84.0,Auvergne-Rhône-Alpes
1155,1230,Évosges,Évosges,45.965147537,5.50283599885,1,Ain,84.0,Auvergne-Rhône-Alpes
1156,1800,Faramans,Faramans,45.9104942091,5.1249258559,1,Ain,84.0,Auvergne-Rhône-Alpes
1157,1480,Fareins,Fareins,46.020997974,4.7620080898,1,Ain,84.0,Auvergne-Rhône-Alpes
1158,1550,Farges,Farges,46.166230455,5.90019477201,1,Ain,84.0,Auvergne-Rhône-Alpes
1159,1570,Feillens,Feillens,46.3365833672,4.88507050971,1,Ain,84.0,Auvergne-Rhône-Alpes
1160,1210,Ferney-Voltaire,Ferney-Voltaire,46.2519789243,6.10826403805,1,Ain,84.0,Auvergne-Rhône-Alpes
1162,1350,Flaxieu,Flaxieu,45.8113298005,5.74459048839,1,Ain,84.0,Auvergne-Rhône-Alpes
1163,1340,Foissiat,Foissiat,46.3784759782,5.18483641417,1,Ain,84.0,Auvergne-Rhône-Alpes
1165,1090,Francheleins,Francheleins,46.0735946256,4.81293575559,1,Ain,84.0,Auvergne-Rhône-Alpes
1166,1480,Frans,Frans,45.9939065077,4.78033196905,1,Ain,84.0,Auvergne-Rhône-Alpes
1167,1140,Garnerans,Garnerans,46.2136224825,4.82843188743,1,Ain,84.0,Auvergne-Rhône-Alpes
1169,1090,Genouilleux,Genouilleux,46.1201611728,4.79288195016,1,Ain,84.0,Auvergne-Rhône-Alpes
1170,1460,Béard-Géovreissiat,Béard-Géovreissiat,46.1896733539,5.55139781353,1,Ain,84.0,Auvergne-Rhône-Alpes
1171,1100,Géovreisset,Géovreisset,46.2508621615,5.61271973915,1,Ain,84.0,Auvergne-Rhône-Alpes
1172,1250,Germagnat,Germagnat,46.3054983344,5.45012798616,1,Ain,84.0,Auvergne-Rhône-Alpes
1173,1170,Gex,Gex,46.3471891747,6.04650555568,1,Ain,84.0,Auvergne-Rhône-Alpes
1174,1130,Giron,Giron,46.2227121191,5.78049809256,1,Ain,84.0,Auvergne-Rhône-Alpes
1175,1190,Gorrevod,Gorrevod,46.414943437,4.95120595427,1,Ain,84.0,Auvergne-Rhône-Alpes
1177,1250,Grand-Corent,Grand-Corent,46.207387937,5.43318666027,1,Ain,84.0,Auvergne-Rhône-Alpes
1179,1290,Grièges,Grièges,46.2633634407,4.84621318847,1,Ain,84.0,Auvergne-Rhône-Alpes
1180,1220,Grilly,Grilly,46.3318810665,6.11366767978,1,Ain,84.0,Auvergne-Rhône-Alpes
1181,1100,Groissiat,Groissiat,46.2260039429,5.61095413441,1,Ain,84.0,Auvergne-Rhône-Alpes
1183,1090,Guéreins,Guéreins,46.106624674,4.78159420118,1,Ain,84.0,Auvergne-Rhône-Alpes
1184,1250,Hautecourt-Romanèche,Hautecourt-Romanèche,46.1611241927,5.42944457639,1,Ain,84.0,Auvergne-Rhône-Alpes
1185,1110,Hauteville-Lompnes,Hauteville-Lompnes,45.9696520061,5.57627261783,1,Ain,84.0,Auvergne-Rhône-Alpes
1186,1110,Hostiaz,Hostiaz,45.9061631889,5.54077986031,1,Ain,84.0,Auvergne-Rhône-Alpes
1187,1260,Haut Valromey,Haut Valromey,46.0317412192,5.70267027388,1,Ain,84.0,Auvergne-Rhône-Alpes
1188,1140,Illiat,Illiat,46.1866986838,4.88840344003,1,Ain,84.0,Auvergne-Rhône-Alpes
1189,1200,Injoux-Génissiat,Injoux-Génissiat,46.0497734524,5.75991363273,1,Ain,84.0,Auvergne-Rhône-Alpes
1190,1680,Innimond,Innimond,45.7919647191,5.57389398559,1,Ain,84.0,Auvergne-Rhône-Alpes
1191,1430,Izenave,Izenave,46.0381623415,5.52447901164,1,Ain,84.0,Auvergne-Rhône-Alpes
1192,1580,Izernore,Izernore,46.2179780137,5.56258251719,1,Ain,84.0,Auvergne-Rhône-Alpes
1193,1300,Izieu,Izieu,45.6557496407,5.63909140794,1,Ain,84.0,Auvergne-Rhône-Alpes
1194,1480,Jassans-Riottier,Jassans-Riottier,45.9777239103,4.75984637871,1,Ain,84.0,Auvergne-Rhône-Alpes
1195,1250,Jasseron,Jasseron,46.2150037064,5.31215372338,1,Ain,84.0,Auvergne-Rhône-Alpes
1196,1340,Jayat,Jayat,46.3660828991,5.11429701617,1,Ain,84.0,Auvergne-Rhône-Alpes
1197,1250,Journans,Journans,46.1464982407,5.33452833151,1,Ain,84.0,Auvergne-Rhône-Alpes
1198,1800,Joyeux,Joyeux,45.9499899849,5.10261326872,1,Ain,84.0,Auvergne-Rhône-Alpes
1199,1640,Jujurieux,Jujurieux,46.0497041467,5.41094771899,1,Ain,84.0,Auvergne-Rhône-Alpes
1200,1450,Labalme,Labalme,46.0932491295,5.49438685213,1,Ain,84.0,Auvergne-Rhône-Alpes
1202,1150,Lagnieu,Lagnieu,45.8917015798,5.32917518895,1,Ain,84.0,Auvergne-Rhône-Alpes
1203,1290,Laiz,Laiz,46.2469919709,4.89933490972,1,Ain,84.0,Auvergne-Rhône-Alpes
1204,1130,Le Poizat-Lalleyriat,Poizat-Lalleyriat,46.1479592076,5.71829194244,1,Ain,84.0,Auvergne-Rhône-Alpes
1205,1200,Lancrans,Lancrans,46.1323202721,5.84050985141,1,Ain,84.0,Auvergne-Rhône-Alpes
1206,1430,Lantenay,Lantenay,46.0544405897,5.54127421165,1,Ain,84.0,Auvergne-Rhône-Alpes
1207,1330,Lapeyrouse,Lapeyrouse,45.9859131165,4.98196682865,1,Ain,84.0,Auvergne-Rhône-Alpes
1208,1350,Lavours,Lavours,45.8108837933,5.77267317838,1,Ain,84.0,Auvergne-Rhône-Alpes
1209,1200,Léaz,Léaz,46.1086518044,5.87649017888,1,Ain,84.0,Auvergne-Rhône-Alpes
1210,1410,Lélex,Lélex,46.2855010936,5.92927713771,1,Ain,84.0,Auvergne-Rhône-Alpes
1211,1240,Lent,Lent,46.1160216305,5.20200684747,1,Ain,84.0,Auvergne-Rhône-Alpes
1212,1560,Lescheroux,Lescheroux,46.4114892731,5.15107164478,1,Ain,84.0,Auvergne-Rhône-Alpes
1213,1150,Leyment,Leyment,45.9269989549,5.2947657235,1,Ain,84.0,Auvergne-Rhône-Alpes
1214,1450,Leyssard,Leyssard,46.1624187428,5.47633297491,1,Ain,84.0,Auvergne-Rhône-Alpes
1215,1420,Lhôpital,Lhôpital,46.0238143134,5.76236736492,1,Ain,84.0,Auvergne-Rhône-Alpes
1216,1680,Lhuis,Lhuis,45.7444141403,5.53602066955,1,Ain,84.0,Auvergne-Rhône-Alpes
1218,1260,Lochieu,Lochieu,45.9302479879,5.7413126836,1,Ain,84.0,Auvergne-Rhône-Alpes
1219,1680,Lompnas,Lompnas,45.8105943351,5.52320457866,1,Ain,84.0,Auvergne-Rhône-Alpes
1221,1260,Lompnieu,Lompnieu,45.9690865613,5.65968816497,1,Ain,84.0,Auvergne-Rhône-Alpes
1224,1360,Loyettes,Loyettes,45.7921564114,5.21770971647,1,Ain,84.0,Auvergne-Rhône-Alpes
1225,1090,Lurcy,Lurcy,46.061730034,4.78075207026,1,Ain,84.0,Auvergne-Rhône-Alpes
1227,1300,Magnieu,Magnieu,45.7754050255,5.71540945601,1,Ain,84.0,Auvergne-Rhône-Alpes
1228,1430,Maillat,Maillat,46.1201642836,5.52854394238,1,Ain,84.0,Auvergne-Rhône-Alpes
1229,1340,Malafretaz,Malafretaz,46.3295545661,5.14386299599,1,Ain,84.0,Auvergne-Rhône-Alpes
1230,1560,Mantenay-Montlin,Mantenay-Montlin,46.4302754511,5.10675899732,1,Ain,84.0,Auvergne-Rhône-Alpes
1231,1570,Manziat,Manziat,46.3643830585,4.90242777155,1,Ain,84.0,Auvergne-Rhône-Alpes
1232,1851,Marboz,Marboz,46.3434312497,5.24374534963,1,Ain,84.0,Auvergne-Rhône-Alpes
1233,1680,Marchamp,Marchamp,45.7738495266,5.54985181107,1,Ain,84.0,Auvergne-Rhône-Alpes
1234,1300,Marignieu,Marignieu,45.8010384947,5.71570352924,1,Ain,84.0,Auvergne-Rhône-Alpes
1235,1240,Marlieux,Marlieux,46.0549073186,5.0741150816,1,Ain,84.0,Auvergne-Rhône-Alpes
1236,1340,Marsonnas,Marsonnas,46.3409117711,5.06434294764,1,Ain,84.0,Auvergne-Rhône-Alpes
1237,1100,Martignat,Martignat,46.2030768095,5.61384033805,1,Ain,84.0,Auvergne-Rhône-Alpes
1238,1600,Massieux,Massieux,45.9094016817,4.82779660051,1,Ain,84.0,Auvergne-Rhône-Alpes
1239,1300,Massignieu-de-Rives,Massignieu-de-Rives,45.7571503942,5.7620535823,1,Ain,84.0,Auvergne-Rhône-Alpes
1240,1580,Matafelon-Granges,Matafelon-Granges,46.2565319445,5.53958933702,1,Ain,84.0,Auvergne-Rhône-Alpes
1241,1370,Meillonnas,Meillonnas,46.244997627,5.33594738489,1,Ain,84.0,Auvergne-Rhône-Alpes
1242,1450,Mérignat,Mérignat,46.0648564341,5.44210660051,1,Ain,84.0,Auvergne-Rhône-Alpes
1243,1480,Messimy-sur-Saône,Messimy-sur-Saône,46.0472670758,4.75935643933,1,Ain,84.0,Auvergne-Rhône-Alpes
1244,1800,Meximieux,Meximieux,45.9060530318,5.20404833653,1,Ain,84.0,Auvergne-Rhône-Alpes
1245,1250,Bohas-Meyriat-Rignat,Bohas-Meyriat-Rignat,46.1427060662,5.3780109646,1,Ain,84.0,Auvergne-Rhône-Alpes
1246,1660,Mézériat,Mézériat,46.2423102101,5.04725416984,1,Ain,84.0,Auvergne-Rhône-Alpes
1247,1170,Mijoux,Mijoux,46.3622451724,6.00902631941,1,Ain,84.0,Auvergne-Rhône-Alpes
1247,1410,Mijoux,Mijoux,46.3622451724,6.00902631941,1,Ain,84.0,Auvergne-Rhône-Alpes
1248,1390,Mionnay,Mionnay,45.8955939299,4.92416967439,1,Ain,84.0,Auvergne-Rhône-Alpes
1249,1700,Miribel,Miribel,45.8442099203,4.94106746787,1,Ain,84.0,Auvergne-Rhône-Alpes
1250,1600,Misérieux,Misérieux,45.9762325343,4.81028471711,1,Ain,84.0,Auvergne-Rhône-Alpes
1252,1140,Mogneneins,Mogneneins,46.1446696076,4.820110702,1,Ain,84.0,Auvergne-Rhône-Alpes
1254,1250,Montagnat,Montagnat,46.1686969123,5.27962107938,1,Ain,84.0,Auvergne-Rhône-Alpes
1255,1470,Montagnieu,Montagnieu,45.799449019,5.46428608859,1,Ain,84.0,Auvergne-Rhône-Alpes
1257,1200,Montanges,Montanges,46.17325293,5.79006091307,1,Ain,84.0,Auvergne-Rhône-Alpes
1258,1090,Montceaux,Montceaux,46.0962893261,4.80453564172,1,Ain,84.0,Auvergne-Rhône-Alpes
1259,1310,Montcet,Montcet,46.219333227,5.11149132074,1,Ain,84.0,Auvergne-Rhône-Alpes
1260,1800,Le Montellier,Montellier,45.9287482486,5.07092815964,1,Ain,84.0,Auvergne-Rhône-Alpes
1261,1390,Monthieux,Monthieux,45.9622791838,4.94555984534,1,Ain,84.0,Auvergne-Rhône-Alpes
1262,1120,Montluel,Montluel,45.8909006209,5.01987566185,1,Ain,84.0,Auvergne-Rhône-Alpes
1263,1090,Montmerle-sur-Saône,Montmerle-sur-Saône,46.0849573236,4.7608579486,1,Ain,84.0,Auvergne-Rhône-Alpes
1264,1310,Montracol,Montracol,46.1867200301,5.11706011755,1,Ain,84.0,Auvergne-Rhône-Alpes
1265,1460,Montréal-la-Cluse,Montréal-la-Cluse,46.1795688194,5.59510550127,1,Ain,84.0,Auvergne-Rhône-Alpes
1266,1340,Montrevel-en-Bresse,Montrevel-en-Bresse,46.3252811442,5.11295966315,1,Ain,84.0,Auvergne-Rhône-Alpes
1267,1460,Nurieux-Volognat,Nurieux-Volognat,46.1830720992,5.51435812316,1,Ain,84.0,Auvergne-Rhône-Alpes
1268,1300,Murs-et-Gélignieux,Murs-et-Gélignieux,45.6420014274,5.66039684889,1,Ain,84.0,Auvergne-Rhône-Alpes
1269,1130,Nantua,Nantua,46.1537845403,5.61352793799,1,Ain,84.0,Auvergne-Rhône-Alpes
1269,1460,Nantua,Nantua,46.1537845403,5.61352793799,1,Ain,84.0,Auvergne-Rhône-Alpes
1272,1400,Neuville-les-Dames,Neuville-les-Dames,46.1567753049,5.00942432434,1,Ain,84.0,Auvergne-Rhône-Alpes
1273,1160,Neuville-sur-Ain,Neuville-sur-Ain,46.0909654813,5.37349784691,1,Ain,84.0,Auvergne-Rhône-Alpes
1274,1130,Les Neyrolles,Neyrolles,46.1342937114,5.63714517869,1,Ain,84.0,Auvergne-Rhône-Alpes
1275,1700,Neyron,Neyron,45.8184192468,4.9309045685,1,Ain,84.0,Auvergne-Rhône-Alpes
1276,1120,Niévroz,Niévroz,45.8222941077,5.05949629195,1,Ain,84.0,Auvergne-Rhône-Alpes
1277,1230,Nivollet-Montgriffon,Nivollet-Montgriffon,45.9999448244,5.45847815374,1,Ain,84.0,Auvergne-Rhône-Alpes
1279,1230,Oncieu,Oncieu,45.9651165469,5.47146617499,1,Ain,84.0,Auvergne-Rhône-Alpes
1280,1510,Ordonnaz,Ordonnaz,45.8339690378,5.5395794296,1,Ain,84.0,Auvergne-Rhône-Alpes
1281,1210,Ornex,Ornex,46.2774557513,6.09454723599,1,Ain,84.0,Auvergne-Rhône-Alpes
1282,1430,Outriaz,Outriaz,46.067796636,5.55697547429,1,Ain,84.0,Auvergne-Rhône-Alpes
1283,1100,Oyonnax,Oyonnax,46.2605435859,5.65344320923,1,Ain,84.0,Auvergne-Rhône-Alpes
1284,1190,Ozan,Ozan,46.3867168877,4.91805840196,1,Ain,84.0,Auvergne-Rhône-Alpes
1285,1600,Parcieux,Parcieux,45.9184267932,4.82747423402,1,Ain,84.0,Auvergne-Rhône-Alpes
1286,1300,Parves et Nattages,Parves et Nattages,45.7437340183,5.73800737134,1,Ain,84.0,Auvergne-Rhône-Alpes
1288,1630,Péron,Péron,46.1913554154,5.91968751164,1,Ain,84.0,Auvergne-Rhône-Alpes
1289,1960,Péronnas,Péronnas,46.1711903413,5.21802169564,1,Ain,84.0,Auvergne-Rhône-Alpes
1290,1800,Pérouges,Pérouges,45.8803945768,5.17955874977,1,Ain,84.0,Auvergne-Rhône-Alpes
1291,1540,Perrex,Perrex,46.2465065604,4.97464940331,1,Ain,84.0,Auvergne-Rhône-Alpes
1293,1430,Peyriat,Peyriat,46.1498184067,5.50572312284,1,Ain,84.0,Auvergne-Rhône-Alpes
1294,1300,Peyrieu,Peyrieu,45.6762428663,5.67912809192,1,Ain,84.0,Auvergne-Rhône-Alpes
1295,1140,Peyzieux-sur-Saône,Peyzieux-sur-Saône,46.1226331853,4.82243226719,1,Ain,84.0,Auvergne-Rhône-Alpes
1296,1270,Pirajoux,Pirajoux,46.385801285,5.27417594024,1,Ain,84.0,Auvergne-Rhône-Alpes
1297,1120,Pizay,Pizay,45.8928509581,5.08915465965,1,Ain,84.0,Auvergne-Rhône-Alpes
1298,1130,Plagne,Plagne,46.1883038423,5.71763811249,1,Ain,84.0,Auvergne-Rhône-Alpes
1299,1330,Le Plantay,Plantay,46.0230264227,5.08912046926,1,Ain,84.0,Auvergne-Rhône-Alpes
1301,1310,Polliat,Polliat,46.2463108642,5.13794412439,1,Ain,84.0,Auvergne-Rhône-Alpes
1302,1350,Pollieu,Pollieu,45.7965373468,5.74794515549,1,Ain,84.0,Auvergne-Rhône-Alpes
1303,1450,Poncin,Poncin,46.089530586,5.41681266947,1,Ain,84.0,Auvergne-Rhône-Alpes
1304,1160,Pont-d'Ain,Pont-d'Ain,46.0542077091,5.34703652618,1,Ain,84.0,Auvergne-Rhône-Alpes
1305,1190,Pont-de-Vaux,Pont-de-Vaux,46.4422864477,4.92862459427,1,Ain,84.0,Auvergne-Rhône-Alpes
1306,1290,Pont-de-Veyle,Pont-de-Veyle,46.2637215091,4.88186068102,1,Ain,84.0,Auvergne-Rhône-Alpes
1307,1460,Port,Port,46.155963139,5.57615832883,1,Ain,84.0,Auvergne-Rhône-Alpes
1308,1550,Pougny,Pougny,46.1450914685,5.95100479291,1,Ain,84.0,Auvergne-Rhône-Alpes
1309,1250,Pouillat,Pouillat,46.3219301481,5.42318000482,1,Ain,84.0,Auvergne-Rhône-Alpes
1310,1300,Prémeyzel,Prémeyzel,45.6806263123,5.64396081449,1,Ain,84.0,Auvergne-Rhône-Alpes
1311,1110,Prémillieu,Prémillieu,45.876457149,5.56475010385,1,Ain,84.0,Auvergne-Rhône-Alpes
1313,1280,Prévessin-Moëns,Prévessin-Moëns,46.25827228,6.07223251859,1,Ain,84.0,Auvergne-Rhône-Alpes
1314,1160,Priay,Priay,46.0197521486,5.28523353803,1,Ain,84.0,Auvergne-Rhône-Alpes
1316,1510,Pugieu,Pugieu,45.8176794806,5.64970405499,1,Ain,84.0,Auvergne-Rhône-Alpes
1317,1250,Ramasse,Ramasse,46.1905550894,5.35572056985,1,Ain,84.0,Auvergne-Rhône-Alpes
1318,1390,Rancé,Rancé,45.9673905154,4.86343025951,1,Ain,84.0,Auvergne-Rhône-Alpes
1319,1990,Relevant,Relevant,46.0843657897,4.94176845356,1,Ain,84.0,Auvergne-Rhône-Alpes
1320,1750,Replonges,Replonges,46.3077356023,4.8746938271,1,Ain,84.0,Auvergne-Rhône-Alpes
1321,1250,Revonnas,Revonnas,46.1615355815,5.33543916388,1,Ain,84.0,Auvergne-Rhône-Alpes
1322,1600,Reyrieux,Reyrieux,45.9367652442,4.82840395968,1,Ain,84.0,Auvergne-Rhône-Alpes
1323,1190,Reyssouze,Reyssouze,46.4285569061,4.91285056272,1,Ain,84.0,Auvergne-Rhône-Alpes
1325,1800,Rignieux-le-Franc,Rignieux-le-Franc,45.9518762734,5.16936671105,1,Ain,84.0,Auvergne-Rhône-Alpes
1328,1400,Romans,Romans,46.1237520756,5.0217131176,1,Ain,84.0,Auvergne-Rhône-Alpes
1329,1510,Rossillon,Rossillon,45.8363854589,5.59926863007,1,Ain,84.0,Auvergne-Rhône-Alpes
1330,1260,Ruffieu,Ruffieu,46.0037108867,5.65322391497,1,Ain,84.0,Auvergne-Rhône-Alpes
1331,1450,Saint-Alban,Saint-Alban,46.0983335519,5.45573839846,1,Ain,84.0,Auvergne-Rhône-Alpes
1332,1380,Saint-André-de-Bâgé,Saint-André-de-Bâgé,46.298541568,4.91411565769,1,Ain,84.0,Auvergne-Rhône-Alpes
1333,1390,Saint-André-de-Corcy,Saint-André-de-Corcy,45.927001954,4.95373324492,1,Ain,84.0,Auvergne-Rhône-Alpes
1334,1290,Saint-André-d'Huiriat,Saint-André-d'Huiriat,46.2140960915,4.91291358797,1,Ain,84.0,Auvergne-Rhône-Alpes
1335,1240,Saint-André-le-Bouchoux,Saint-André-le-Bouchoux,46.1131399612,5.0802376895,1,Ain,84.0,Auvergne-Rhône-Alpes
1336,1960,Saint-André-sur-Vieux-Jonc,Saint-André-sur-Vieux-Jonc,46.1492410532,5.14175200148,1,Ain,84.0,Auvergne-Rhône-Alpes
1337,1190,Saint-Bénigne,Saint-Bénigne,46.4519173207,4.95309825903,1,Ain,84.0,Auvergne-Rhône-Alpes
1338,1300,Groslée-Saint-Benoit,Groslée-Saint-Benoit,45.6891842277,5.5843972561,1,Ain,84.0,Auvergne-Rhône-Alpes
1338,1680,Groslée-Saint-Benoit,Groslée-Saint-Benoit,45.6891842277,5.5843972561,1,Ain,84.0,Auvergne-Rhône-Alpes
1339,1600,Saint-Bernard,Saint-Bernard,45.9493830581,4.74276628471,1,Ain,84.0,Auvergne-Rhône-Alpes
1341,1300,Saint-Champ,Saint-Champ,45.7825741014,5.7326531461,1,Ain,84.0,Auvergne-Rhône-Alpes
1342,1120,Sainte-Croix,Sainte-Croix,45.895522477,5.04935536228,1,Ain,84.0,Auvergne-Rhône-Alpes
1343,1380,Saint-Cyr-sur-Menthon,Saint-Cyr-sur-Menthon,46.2754005606,4.96757105158,1,Ain,84.0,Auvergne-Rhône-Alpes
1344,1000,Saint-Denis-lès-Bourg,Saint-Denis-lès-Bourg,46.2111998453,5.18462806771,1,Ain,84.0,Auvergne-Rhône-Alpes
1345,1500,Saint-Denis-en-Bugey,Saint-Denis-en-Bugey,45.9488551151,5.32367701698,1,Ain,84.0,Auvergne-Rhône-Alpes
1346,1340,Saint-Didier-d'Aussiat,Saint-Didier-d'Aussiat,46.3069992095,5.05820697692,1,Ain,84.0,Auvergne-Rhône-Alpes
1347,1600,Saint-Didier-de-Formans,Saint-Didier-de-Formans,45.9564926067,4.77766764875,1,Ain,84.0,Auvergne-Rhône-Alpes
1348,1140,Saint-Didier-sur-Chalaronne,Saint-Didier-sur-Chalaronne,46.1840408682,4.81645666173,1,Ain,84.0,Auvergne-Rhône-Alpes
1349,1800,Saint-Éloi,Saint-Éloi,45.9322494861,5.15187041178,1,Ain,84.0,Auvergne-Rhône-Alpes
1350,1370,Saint-Étienne-du-Bois,Saint-Étienne-du-Bois,46.2749447261,5.28428557632,1,Ain,84.0,Auvergne-Rhône-Alpes
1351,1140,Saint-Étienne-sur-Chalaronne,Saint-Étienne-sur-Chalaronne,46.1468059584,4.86696454244,1,Ain,84.0,Auvergne-Rhône-Alpes
1352,1190,Saint-Étienne-sur-Reyssouze,Saint-Étienne-sur-Reyssouze,46.4030398952,5.00605581573,1,Ain,84.0,Auvergne-Rhône-Alpes
1353,1600,Sainte-Euphémie,Sainte-Euphémie,45.9669798317,4.79478189169,1,Ain,84.0,Auvergne-Rhône-Alpes
1354,1630,Saint-Genis-Pouilly,Saint-Genis-Pouilly,46.254539333,6.0362907345,1,Ain,84.0,Auvergne-Rhône-Alpes
1355,1380,Saint-Genis-sur-Menthon,Saint-Genis-sur-Menthon,46.2815955593,5.01311826405,1,Ain,84.0,Auvergne-Rhône-Alpes
1356,1400,Saint-Georges-sur-Renon,Saint-Georges-sur-Renon,46.1037951263,5.03001967494,1,Ain,84.0,Auvergne-Rhône-Alpes
1357,1130,Saint-Germain-de-Joux,Saint-Germain-de-Joux,46.1821955394,5.74672259773,1,Ain,84.0,Auvergne-Rhône-Alpes
1358,1300,Saint-Germain-les-Paroisses,Saint-Germain-les-Paroisses,45.7709749249,5.61753440834,1,Ain,84.0,Auvergne-Rhône-Alpes
1359,1240,Saint-Germain-sur-Renon,Saint-Germain-sur-Renon,46.0797285417,5.06090903982,1,Ain,84.0,Auvergne-Rhône-Alpes
1360,1630,Saint-Jean-de-Gonville,Saint-Jean-de-Gonville,46.2178585727,5.94203093769,1,Ain,84.0,Auvergne-Rhône-Alpes
1361,1800,Saint-Jean-de-Niost,Saint-Jean-de-Niost,45.8405002569,5.21167430462,1,Ain,84.0,Auvergne-Rhône-Alpes
1362,1390,Saint-Jean-de-Thurigneux,Saint-Jean-de-Thurigneux,45.9598424323,4.89936410681,1,Ain,84.0,Auvergne-Rhône-Alpes
1363,1640,Saint-Jean-le-Vieux,Saint-Jean-le-Vieux,46.0291437714,5.38252835538,1,Ain,84.0,Auvergne-Rhône-Alpes
1364,1560,Saint-Jean-sur-Reyssouze,Saint-Jean-sur-Reyssouze,46.3972479854,5.06297763777,1,Ain,84.0,Auvergne-Rhône-Alpes
1365,1290,Saint-Jean-sur-Veyle,Saint-Jean-sur-Veyle,46.2683632132,4.92198366998,1,Ain,84.0,Auvergne-Rhône-Alpes
1366,1150,Sainte-Julie,Sainte-Julie,45.8819723176,5.28452304614,1,Ain,84.0,Auvergne-Rhône-Alpes
1367,1560,Saint-Julien-sur-Reyssouze,Saint-Julien-sur-Reyssouze,46.3997655501,5.10354296019,1,Ain,84.0,Auvergne-Rhône-Alpes
1368,1540,Saint-Julien-sur-Veyle,Saint-Julien-sur-Veyle,46.2014862081,4.959356342,1,Ain,84.0,Auvergne-Rhône-Alpes
1369,1250,Saint-Just,Saint-Just,46.1929758576,5.28494181398,1,Ain,84.0,Auvergne-Rhône-Alpes
1370,1750,Saint-Laurent-sur-Saône,Saint-Laurent-sur-Saône,46.3051486294,4.83949202669,1,Ain,84.0,Auvergne-Rhône-Alpes
1371,1390,Saint-Marcel,Saint-Marcel,45.9485803654,4.9896671017,1,Ain,84.0,Auvergne-Rhône-Alpes
1372,1510,Saint-Martin-de-Bavel,Saint-Martin-de-Bavel,45.848212674,5.67889099153,1,Ain,84.0,Auvergne-Rhône-Alpes
1373,1430,Saint-Martin-du-Frêne,Saint-Martin-du-Frêne,46.135983782,5.57106016428,1,Ain,84.0,Auvergne-Rhône-Alpes
1374,1160,Saint-Martin-du-Mont,Saint-Martin-du-Mont,46.1061500835,5.32551470817,1,Ain,84.0,Auvergne-Rhône-Alpes
1375,1310,Saint-Martin-le-Châtel,Saint-Martin-le-Châtel,46.291445874,5.12291715091,1,Ain,84.0,Auvergne-Rhône-Alpes
1376,1700,Saint-Maurice-de-Beynost,Saint-Maurice-de-Beynost,45.8343709108,4.97726215174,1,Ain,84.0,Auvergne-Rhône-Alpes
1378,1800,Saint-Maurice-de-Gourdans,Saint-Maurice-de-Gourdans,45.8200191939,5.16980415584,1,Ain,84.0,Auvergne-Rhône-Alpes
1379,1500,Saint-Maurice-de-Rémens,Saint-Maurice-de-Rémens,45.9527471237,5.2708276475,1,Ain,84.0,Auvergne-Rhône-Alpes
1380,1560,Saint-Nizier-le-Bouchoux,Saint-Nizier-le-Bouchoux,46.4528537121,5.1759906585,1,Ain,84.0,Auvergne-Rhône-Alpes
1381,1320,Saint-Nizier-le-Désert,Saint-Nizier-le-Désert,46.052861561,5.14246131764,1,Ain,84.0,Auvergne-Rhône-Alpes
1382,1330,Sainte-Olive,Sainte-Olive,46.0142006121,4.93624894982,1,Ain,84.0,Auvergne-Rhône-Alpes
1383,1240,Saint-Paul-de-Varax,Saint-Paul-de-Varax,46.0956691617,5.12762470203,1,Ain,84.0,Auvergne-Rhône-Alpes
1384,1230,Saint-Rambert-en-Bugey,Saint-Rambert-en-Bugey,45.9504631708,5.44017084612,1,Ain,84.0,Auvergne-Rhône-Alpes
1385,1310,Saint-Rémy,Saint-Rémy,46.1846642149,5.16771354778,1,Ain,84.0,Auvergne-Rhône-Alpes
1386,1150,Saint-Sorlin-en-Bugey,Saint-Sorlin-en-Bugey,45.886308438,5.37608915006,1,Ain,84.0,Auvergne-Rhône-Alpes
1387,1340,Saint-Sulpice,Saint-Sulpice,46.3209806116,5.04148389346,1,Ain,84.0,Auvergne-Rhône-Alpes
1388,1560,Saint-Trivier-de-Courtes,Saint-Trivier-de-Courtes,46.4612969335,5.06679195727,1,Ain,84.0,Auvergne-Rhône-Alpes
1389,1990,Saint-Trivier-sur-Moignans,Saint-Trivier-sur-Moignans,46.0618477991,4.90158948884,1,Ain,84.0,Auvergne-Rhône-Alpes
1390,1150,Saint-Vulbas,Saint-Vulbas,45.8222315102,5.27019602929,1,Ain,84.0,Auvergne-Rhône-Alpes
1391,1270,Salavre,Salavre,46.3635396668,5.34742387197,1,Ain,84.0,Auvergne-Rhône-Alpes
1392,1580,Samognat,Samognat,46.2648715781,5.58607689306,1,Ain,84.0,Auvergne-Rhône-Alpes
1393,1400,Sandrans,Sandrans,46.0656961548,4.98282673172,1,Ain,84.0,Auvergne-Rhône-Alpes
1396,1150,Sault-Brénaz,Sault-Brénaz,45.8654038798,5.40416104083,1,Ain,84.0,Auvergne-Rhône-Alpes
1397,1220,Sauverny,Sauverny,46.3126908233,6.11043836433,1,Ain,84.0,Auvergne-Rhône-Alpes
1398,1480,Savigneux,Savigneux,45.997346828,4.8576200906,1,Ain,84.0,Auvergne-Rhône-Alpes
1399,1170,Ségny,Ségny,46.2935928404,6.07287743792,1,Ain,84.0,Auvergne-Rhône-Alpes
1400,1470,Seillonnaz,Seillonnaz,45.7976976614,5.49810658524,1,Ain,84.0,Auvergne-Rhône-Alpes
1401,1630,Sergy,Sergy,46.2626243003,5.98914553194,1,Ain,84.0,Auvergne-Rhône-Alpes
1402,1190,Sermoyer,Sermoyer,46.4981991944,4.97856020441,1,Ain,84.0,Auvergne-Rhône-Alpes
1403,1470,Serrières-de-Briord,Serrières-de-Briord,45.8133219416,5.44125880379,1,Ain,84.0,Auvergne-Rhône-Alpes
1404,1450,Serrières-sur-Ain,Serrières-sur-Ain,46.1466977757,5.45023362942,1,Ain,84.0,Auvergne-Rhône-Alpes
1405,1960,Servas,Servas,46.1385540577,5.17887070992,1,Ain,84.0,Auvergne-Rhône-Alpes
1406,1560,Servignat,Servignat,46.4346497878,5.05559973107,1,Ain,84.0,Auvergne-Rhône-Alpes
1407,1420,Seyssel,Seyssel,45.9484118176,5.82616979887,1,Ain,84.0,Auvergne-Rhône-Alpes
1408,1250,Simandre-sur-Suran,Simandre-sur-Suran,46.2340471594,5.42240815305,1,Ain,84.0,Auvergne-Rhône-Alpes
1410,1580,Sonthonnax-la-Montagne,Sonthonnax-la-Montagne,46.2229768712,5.50566888767,1,Ain,84.0,Auvergne-Rhône-Alpes
1411,1150,Souclin,Souclin,45.8781798572,5.43058627512,1,Ain,84.0,Auvergne-Rhône-Alpes
1412,1400,Sulignat,Sulignat,46.1735383313,4.95772382526,1,Ain,84.0,Auvergne-Rhône-Alpes
1413,1420,Surjoux,Surjoux,46.030402108,5.79957920623,1,Ain,84.0,Auvergne-Rhône-Alpes
1414,1260,Sutrieu,Sutrieu,45.9311367808,5.64988248129,1,Ain,84.0,Auvergne-Rhône-Alpes
1415,1510,Talissieu,Talissieu,45.8637167128,5.72090411074,1,Ain,84.0,Auvergne-Rhône-Alpes
1416,1230,Tenay,Tenay,45.922698278,5.51453923595,1,Ain,84.0,Auvergne-Rhône-Alpes
1417,1110,Thézillieu,Thézillieu,45.8931883593,5.59700638944,1,Ain,84.0,Auvergne-Rhône-Alpes
1418,1120,Thil,Thil,45.8169214201,5.0184098869,1,Ain,84.0,Auvergne-Rhône-Alpes
1419,1710,Thoiry,Thoiry,46.2435475879,5.96506297987,1,Ain,84.0,Auvergne-Rhône-Alpes
1420,1140,Thoissey,Thoissey,46.1700943481,4.79387095814,1,Ain,84.0,Auvergne-Rhône-Alpes
1421,1230,Torcieu,Torcieu,45.92125055,5.40400282244,1,Ain,84.0,Auvergne-Rhône-Alpes
1422,1250,Tossiat,Tossiat,46.1384790158,5.30400055922,1,Ain,84.0,Auvergne-Rhône-Alpes
1423,1600,Toussieux,Toussieux,45.959898291,4.82898610612,1,Ain,84.0,Auvergne-Rhône-Alpes
1424,1390,Tramoyes,Tramoyes,45.8745670311,4.9639268325,1,Ain,84.0,Auvergne-Rhône-Alpes
1425,1160,La Tranclière,Tranclière,46.0970027075,5.26099875456,1,Ain,84.0,Auvergne-Rhône-Alpes
1426,1370,Val-Revermont,Val-Revermont,46.2803281838,5.36083165162,1,Ain,84.0,Auvergne-Rhône-Alpes
1427,1600,Trévoux,Trévoux,45.940671655,4.7714415007,1,Ain,84.0,Auvergne-Rhône-Alpes
1428,1140,Valeins,Valeins,46.1146467438,4.86551696868,1,Ain,84.0,Auvergne-Rhône-Alpes
1429,1660,Vandeins,Vandeins,46.217806795,5.08189056957,1,Ain,84.0,Auvergne-Rhône-Alpes
1430,1160,Varambon,Varambon,46.0433928197,5.2947944594,1,Ain,84.0,Auvergne-Rhône-Alpes
1431,1150,Vaux-en-Bugey,Vaux-en-Bugey,45.9201205456,5.36353184193,1,Ain,84.0,Auvergne-Rhône-Alpes
1432,1270,Verjon,Verjon,46.3459093717,5.34853019646,1,Ain,84.0,Auvergne-Rhône-Alpes
1433,1560,Vernoux,Vernoux,46.4848229774,5.10590413121,1,Ain,84.0,Auvergne-Rhône-Alpes
1434,1330,Versailleux,Versailleux,45.9854373478,5.11204819151,1,Ain,84.0,Auvergne-Rhône-Alpes
1435,1210,Versonnex,Versonnex,46.2997631425,6.10057952207,1,Ain,84.0,Auvergne-Rhône-Alpes
1436,1170,Vesancy,Vesancy,46.3610768127,6.08470665475,1,Ain,84.0,Auvergne-Rhône-Alpes
1437,1560,Vescours,Vescours,46.4743960759,5.02617426573,1,Ain,84.0,Auvergne-Rhône-Alpes
1439,1570,Vésines,Vésines,46.3593397751,4.86265852202,1,Ain,84.0,Auvergne-Rhône-Alpes
1441,1430,Vieu-d'Izenave,Vieu-d'Izenave,46.0853386653,5.54922100161,1,Ain,84.0,Auvergne-Rhône-Alpes
1442,1260,Vieu,Vieu,45.8898392612,5.68999399947,1,Ain,84.0,Auvergne-Rhône-Alpes
1443,1330,Villars-les-Dombes,Villars-les-Dombes,45.9927150222,5.04507856642,1,Ain,84.0,Auvergne-Rhône-Alpes
1444,1150,Villebois,Villebois,45.8485624628,5.44711117486,1,Ain,84.0,Auvergne-Rhône-Alpes
1445,1270,Villemotier,Villemotier,46.3458538978,5.31036160991,1,Ain,84.0,Auvergne-Rhône-Alpes
1446,1480,Villeneuve,Villeneuve,46.0319048788,4.85182526102,1,Ain,84.0,Auvergne-Rhône-Alpes
1447,1250,Villereversure,Villereversure,46.1926750369,5.3947679407,1,Ain,84.0,Auvergne-Rhône-Alpes
1448,1200,Villes,Villes,46.0954293058,5.7569250415,1,Ain,84.0,Auvergne-Rhône-Alpes
1449,1320,Villette-sur-Ain,Villette-sur-Ain,46.0099989032,5.25214547187,1,Ain,84.0,Auvergne-Rhône-Alpes
1450,1800,Villieu-Loyes-Mollon,Villieu-Loyes-Mollon,45.932014998,5.22953071636,1,Ain,84.0,Auvergne-Rhône-Alpes
1451,1440,Viriat,Viriat,46.2508985632,5.22302249216,1,Ain,84.0,Auvergne-Rhône-Alpes
1452,1510,Virieu-le-Grand,Virieu-le-Grand,45.8464417872,5.63971940347,1,Ain,84.0,Auvergne-Rhône-Alpes
1453,1260,Virieu-le-Petit,Virieu-le-Petit,45.9063608209,5.73707051523,1,Ain,84.0,Auvergne-Rhône-Alpes
1454,1300,Virignin,Virignin,45.7267387762,5.71282330936,1,Ain,84.0,Auvergne-Rhône-Alpes
1456,1350,Vongnes,Vongnes,45.8129059524,5.72536666767,1,Ain,84.0,Auvergne-Rhône-Alpes
1457,1540,Vonnas,Vonnas,46.2168871367,4.99744373712,1,Ain,84.0,Auvergne-Rhône-Alpes
2001,2300,Abbécourt,Abbécourt,49.5991518653,3.17708232927,2,Aisne,32.0,Hauts-de-France
2002,2800,Achery,Achery,49.6936187791,3.39735632148,2,Aisne,32.0,Hauts-de-France
2003,2200,Acy,Acy,49.3471963534,3.41817609834,2,Aisne,32.0,Hauts-de-France
2004,2340,Agnicourt-et-Séchelles,Agnicourt-et-Séchelles,49.7166573626,3.96043211816,2,Aisne,32.0,Hauts-de-France
2005,2190,Aguilcourt,Aguilcourt,49.393650796,3.96803679426,2,Aisne,32.0,Hauts-de-France
2006,2110,Aisonville-et-Bernoville,Aisonville-et-Bernoville,49.930148162,3.51120205593,2,Aisne,32.0,Hauts-de-France
2007,2820,Aizelles,Aizelles,49.4848002918,3.81870255331,2,Aisne,32.0,Hauts-de-France
2008,2370,Aizy-Jouy,Aizy-Jouy,49.4384256824,3.51149185429,2,Aisne,32.0,Hauts-de-France
2009,2240,Alaincourt,Alaincourt,49.7667120841,3.36639043616,2,Aisne,32.0,Hauts-de-France
2010,2320,Allemant,Allemant,49.4624440593,3.45394275872,2,Aisne,32.0,Hauts-de-France
2011,2290,Ambleny,Ambleny,49.3762672939,3.18334679178,2,Aisne,32.0,Hauts-de-France
2012,2200,Ambrief,Ambrief,49.3215250088,3.40362196255,2,Aisne,32.0,Hauts-de-France
2013,2190,Amifontaine,Amifontaine,49.498787026,3.92278993322,2,Aisne,32.0,Hauts-de-France
2014,2700,Amigny-Rouy,Amigny-Rouy,49.6108275885,3.30289341579,2,Aisne,32.0,Hauts-de-France
2015,2600,Ancienville,Ancienville,49.2186389559,3.20808809779,2,Aisne,32.0,Hauts-de-France
2016,2800,Andelain,Andelain,49.6411808161,3.3695440898,2,Aisne,32.0,Hauts-de-France
2017,2800,Anguilcourt-le-Sart,Anguilcourt-le-Sart,49.6940879195,3.42823182437,2,Aisne,32.0,Hauts-de-France
2018,2320,Anizy-le-Château,Anizy-le-Château,49.5045058305,3.43129584952,2,Aisne,32.0,Hauts-de-France
2019,2480,Annois,Annois,49.7210674108,3.17611501401,2,Aisne,32.0,Hauts-de-France
2020,2500,Any-Martin-Rieux,Any-Martin-Rieux,49.8823706752,4.22351346907,2,Aisne,32.0,Hauts-de-France
2021,2360,Archon,Archon,49.744126618,4.11908765808,2,Aisne,32.0,Hauts-de-France
2022,2130,Arcy-Sainte-Restitue,Arcy-Sainte-Restitue,49.2548799371,3.47829076337,2,Aisne,32.0,Hauts-de-France
2023,2210,Armentières-sur-Ourcq,Armentières-sur-Ourcq,49.1734232511,3.38789647903,2,Aisne,32.0,Hauts-de-France
2024,2860,Arrancy,Arrancy,49.4989016398,3.7647230005,2,Aisne,32.0,Hauts-de-France
2025,2480,Artemps,Artemps,49.7617999337,3.19725095546,2,Aisne,32.0,Hauts-de-France
2027,2270,Assis-sur-Serre,Assis-sur-Serre,49.6803739117,3.55491692691,2,Aisne,32.0,Hauts-de-France
2028,2840,Athies-sous-Laon,Athies-sous-Laon,49.5757750686,3.69006632109,2,Aisne,32.0,Hauts-de-France
2029,2490,Attilly,Attilly,49.8554489068,3.15363305662,2,Aisne,32.0,Hauts-de-France
2030,2420,Aubencheul-aux-Bois,Aubencheul-aux-Bois,50.0239903854,3.26103215604,2,Aisne,32.0,Hauts-de-France
2031,2500,Aubenton,Aubenton,49.8252306759,4.19066939985,2,Aisne,32.0,Hauts-de-France
2032,2590,Aubigny-aux-Kaisnes,Aubigny-aux-Kaisnes,49.7721524634,3.1192565988,2,Aisne,32.0,Hauts-de-France
2033,2820,Aubigny-en-Laonnois,Aubigny-en-Laonnois,49.4968821185,3.79282850765,2,Aisne,32.0,Hauts-de-France
2034,2300,Audignicourt,Audignicourt,49.4777157214,3.12718502825,2,Aisne,32.0,Hauts-de-France
2035,2120,Audigny,Audigny,49.8660645425,3.6312599901,2,Aisne,32.0,Hauts-de-France
2036,2220,Augy,Augy,49.340063724,3.5110198819,2,Aisne,32.0,Hauts-de-France
2037,2000,Aulnois-sous-Laon,Aulnois-sous-Laon,49.6198117499,3.60981962105,2,Aisne,32.0,Hauts-de-France
2038,2360,Les Autels,Autels,49.7608855336,4.22422505762,2,Aisne,32.0,Hauts-de-France
2039,2250,Autremencourt,Autremencourt,49.7051244442,3.79419867292,2,Aisne,32.0,Hauts-de-France
2040,2580,Autreppes,Autreppes,49.8969849321,3.85601033505,2,Aisne,32.0,Hauts-de-France
2041,2300,Autreville,Autreville,49.5860875305,3.23602708427,2,Aisne,32.0,Hauts-de-France
2042,2400,Azy-sur-Marne,Azy-sur-Marne,49.0039701095,3.35913214045,2,Aisne,32.0,Hauts-de-France
2043,2290,Bagneux,Bagneux,49.4601139731,3.27945330014,2,Aisne,32.0,Hauts-de-France
2044,2140,Bancigny,Bancigny,49.7978711595,4.03669866073,2,Aisne,32.0,Hauts-de-France
2046,2000,Barenton-Bugny,Barenton-Bugny,49.6218589779,3.66103056579,2,Aisne,32.0,Hauts-de-France
2047,2000,Barenton-Cel,Barenton-Cel,49.6477517259,3.64469997459,2,Aisne,32.0,Hauts-de-France
2048,2270,Barenton-sur-Serre,Barenton-sur-Serre,49.66833977,3.68940610952,2,Aisne,32.0,Hauts-de-France
2049,2700,Barisis-aux-Bois,Barisis-aux-Bois,49.577979369,3.32804487461,2,Aisne,32.0,Hauts-de-France
2050,2170,Barzy-en-Thiérache,Barzy-en-Thiérache,50.0395375873,3.74901595409,2,Aisne,32.0,Hauts-de-France
2051,2850,Barzy-sur-Marne,Barzy-sur-Marne,49.0906196202,3.56214117254,2,Aisne,32.0,Hauts-de-France
2052,2380,Bassoles-Aulers,Bassoles-Aulers,49.5332813699,3.38492604839,2,Aisne,32.0,Hauts-de-France
2053,2330,Vallées en Champagne,Vallées en Champagne,48.9896915811,3.60486686026,2,Aisne,32.0,Hauts-de-France
2054,2220,Bazoches-sur-Vesles,Bazoches-sur-Vesles,49.3070586788,3.61583126589,2,Aisne,32.0,Hauts-de-France
2055,2500,Beaumé,Beaumé,49.8211281836,4.15200066545,2,Aisne,32.0,Hauts-de-France
2056,2300,Beaumont-en-Beine,Beaumont-en-Beine,49.6874633882,3.13133369335,2,Aisne,32.0,Hauts-de-France
2057,2110,Beaurevoir,Beaurevoir,49.9965608612,3.32970842537,2,Aisne,32.0,Hauts-de-France
2058,2160,Beaurieux,Beaurieux,49.402806797,3.75287161991,2,Aisne,32.0,Hauts-de-France
2059,2800,Beautor,Beautor,49.648319958,3.33811188104,2,Aisne,32.0,Hauts-de-France
2060,2590,Beauvois-en-Vermandois,Beauvois-en-Vermandois,49.8339921767,3.10282045546,2,Aisne,32.0,Hauts-de-France
2061,2110,Becquigny,Becquigny,50.0158703814,3.45898644538,2,Aisne,32.0,Hauts-de-France
2062,2400,Belleau,Belleau,49.0829128265,3.30049173293,2,Aisne,32.0,Hauts-de-France
2063,2420,Bellenglise,Bellenglise,49.9261057081,3.2441994692,2,Aisne,32.0,Hauts-de-France
2064,2200,Belleu,Belleu,49.3567574344,3.34051688283,2,Aisne,32.0,Hauts-de-France
2065,2420,Bellicourt,Bellicourt,49.9592991729,3.23020850852,2,Aisne,32.0,Hauts-de-France
2066,2440,Benay,Benay,49.755094123,3.30909898139,2,Aisne,32.0,Hauts-de-France
2067,2450,Bergues-sur-Sambre,Bergues-sur-Sambre,50.0294686238,3.711371001,2,Aisne,32.0,Hauts-de-France
2068,2250,Berlancourt,Berlancourt,49.7808533631,3.75710714699,2,Aisne,32.0,Hauts-de-France
2069,2340,Berlise,Berlise,49.6622290606,4.11314086897,2,Aisne,32.0,Hauts-de-France
2070,2120,Bernot,Bernot,49.8793651304,3.48665456392,2,Aisne,32.0,Hauts-de-France
2071,2290,Berny-Rivière,Berny-Rivière,49.4113288887,3.14975272702,2,Aisne,32.0,Hauts-de-France
2072,2820,Berrieux,Berrieux,49.4823563962,3.8521031839,2,Aisne,32.0,Hauts-de-France
2073,2190,Berry-au-Bac,Berry-au-Bac,49.4084985083,3.8985497785,2,Aisne,32.0,Hauts-de-France
2074,2800,Bertaucourt-Epourdon,Bertaucourt-Epourdon,49.6276056573,3.39748988886,2,Aisne,32.0,Hauts-de-France
2075,2240,Berthenicourt,Berthenicourt,49.7788058177,3.37247241058,2,Aisne,32.0,Hauts-de-France
2076,2190,Bertricourt,Bertricourt,49.3975285682,4.01146178698,2,Aisne,32.0,Hauts-de-France
2077,2200,Berzy-le-Sec,Berzy-le-Sec,49.3172125296,3.29666086699,2,Aisne,32.0,Hauts-de-France
2078,2300,Besmé,Besmé,49.5341682819,3.16474171361,2,Aisne,32.0,Hauts-de-France
2079,2500,Besmont,Besmont,49.823361306,4.11768907822,2,Aisne,32.0,Hauts-de-France
2080,2870,Besny-et-Loizy,Besny-et-Loizy,49.5928792816,3.57657238799,2,Aisne,32.0,Hauts-de-France
2081,2300,Béthancourt-en-Vaux,Béthancourt-en-Vaux,49.6290547772,3.14064657935,2,Aisne,32.0,Hauts-de-France
2082,2210,Beugneux,Beugneux,49.2275759309,3.41647403702,2,Aisne,32.0,Hauts-de-France
2083,2130,Beuvardes,Beuvardes,49.1308547007,3.49165019107,2,Aisne,32.0,Hauts-de-France
2084,2310,Bézu-le-Guéry,Bézu-le-Guéry,49.0102591835,3.22764610411,2,Aisne,32.0,Hauts-de-France
2085,2400,Bézu-Saint-Germain,Bézu-Saint-Germain,49.1046732888,3.40812513224,2,Aisne,32.0,Hauts-de-France
2086,2300,Bichancourt,Bichancourt,49.578776546,3.21263017443,2,Aisne,32.0,Hauts-de-France
2087,2290,Bieuxy,Bieuxy,49.4476050585,3.26985890807,2,Aisne,32.0,Hauts-de-France
2088,2860,Bièvres,Bièvres,49.4921822965,3.7137356904,2,Aisne,32.0,Hauts-de-France
2089,2200,Billy-sur-Aisne,Billy-sur-Aisne,49.3556556532,3.37609947556,2,Aisne,32.0,Hauts-de-France
2090,2210,Billy-sur-Ourcq,Billy-sur-Ourcq,49.2215032882,3.29903267663,2,Aisne,32.0,Hauts-de-France
2091,2160,Blanzy-lès-Fismes,Blanzy-lès-Fismes,49.3372673738,3.671868408,2,Aisne,32.0,Hauts-de-France
2093,2300,Blérancourt,Blérancourt,49.5076223945,3.15179502187,2,Aisne,32.0,Hauts-de-France
2094,2400,Blesmes,Blesmes,49.0264919363,3.46405474705,2,Aisne,32.0,Hauts-de-France
2095,2110,Bohain-en-Vermandois,Bohain-en-Vermandois,49.989032874,3.46522354976,2,Aisne,32.0,Hauts-de-France
2096,2270,Bois-lès-Pargny,Bois-lès-Pargny,49.7369350689,3.65414834535,2,Aisne,32.0,Hauts-de-France
2097,2350,Boncourt,Boncourt,49.6264861998,3.956447719,2,Aisne,32.0,Hauts-de-France
2098,2400,Bonneil,Bonneil,49.0082419817,3.3459478468,2,Aisne,32.0,Hauts-de-France
2099,2400,Bonnesvalyn,Bonnesvalyn,49.1264049496,3.32541661771,2,Aisne,32.0,Hauts-de-France
2100,2420,Bony,Bony,49.9908643724,3.22116002448,2,Aisne,32.0,Hauts-de-France
2101,2250,Bosmont-sur-Serre,Bosmont-sur-Serre,49.7390653213,3.86733568391,2,Aisne,32.0,Hauts-de-France
2102,2860,Bouconville-Vauclair,Bouconville-Vauclair,49.4606212957,3.75658607824,2,Aisne,32.0,Hauts-de-France
2103,2450,Boué,Boué,50.0114554001,3.71432024852,2,Aisne,32.0,Hauts-de-France
2104,2160,Bouffignereux,Bouffignereux,49.3788374998,3.84626014622,2,Aisne,32.0,Hauts-de-France
2105,2400,Bouresches,Bouresches,49.0671787396,3.31728226934,2,Aisne,32.0,Hauts-de-France
2106,2160,Bourg-et-Comin,Bourg-et-Comin,49.4022354002,3.65944342757,2,Aisne,32.0,Hauts-de-France
2107,2300,Bourguignon-sous-Coucy,Bourguignon-sous-Coucy,49.5427641575,3.15422957657,2,Aisne,32.0,Hauts-de-France
2108,2000,Bourguignon-sous-Montbavin,Bourguignon-sous-Montbavin,49.5288056883,3.53777236106,2,Aisne,32.0,Hauts-de-France
2109,2140,La Bouteille,Bouteille,49.8778828965,3.96243530235,2,Aisne,32.0,Hauts-de-France
2110,2220,Braine,Braine,49.3484719318,3.53596629744,2,Aisne,32.0,Hauts-de-France
2111,2320,Brancourt-en-Laonnois,Brancourt-en-Laonnois,49.5176286609,3.41282321335,2,Aisne,32.0,Hauts-de-France
2112,2110,Brancourt-le-Grand,Brancourt-le-Grand,49.98081057,3.39391192109,2,Aisne,32.0,Hauts-de-France
2114,2400,Brasles,Brasles,49.0567927241,3.42453409652,2,Aisne,32.0,Hauts-de-France
2115,2000,Braye-en-Laonnois,Braye-en-Laonnois,49.4375773374,3.60977976284,2,Aisne,32.0,Hauts-de-France
2116,2140,Braye-en-Thiérache,Braye-en-Thiérache,49.7675470994,3.96265841899,2,Aisne,32.0,Hauts-de-France
2117,2480,Bray-Saint-Christophe,Bray-Saint-Christophe,49.7746700975,3.14070965091,2,Aisne,32.0,Hauts-de-France
2118,2880,Braye,Braye,49.4221361409,3.37829006511,2,Aisne,32.0,Hauts-de-France
2119,2210,Brécy,Brécy,49.1398626041,3.42373097034,2,Aisne,32.0,Hauts-de-France
2120,2220,Brenelle,Brenelle,49.3680052078,3.5442035574,2,Aisne,32.0,Hauts-de-France
2121,2210,Breny,Breny,49.1842783438,3.34972495405,2,Aisne,32.0,Hauts-de-France
2122,2870,Brie,Brie,49.5973962294,3.4733634659,2,Aisne,32.0,Hauts-de-France
2123,2240,Brissay-Choigny,Brissay-Choigny,49.7228299725,3.39639768252,2,Aisne,32.0,Hauts-de-France
2124,2240,Brissy-Hamégicourt,Brissy-Hamégicourt,49.7432786375,3.39968837909,2,Aisne,32.0,Hauts-de-France
2125,2810,Brumetz,Brumetz,49.1103074474,3.15291445147,2,Aisne,32.0,Hauts-de-France
2126,2360,Brunehamel,Brunehamel,49.7718100626,4.18649398572,2,Aisne,32.0,Hauts-de-France
2127,2130,Bruyères-sur-Fère,Bruyères-sur-Fère,49.1996571467,3.44535846468,2,Aisne,32.0,Hauts-de-France
2128,2860,Bruyères-et-Montbérault,Bruyères-et-Montbérault,49.5239615523,3.66954693798,2,Aisne,32.0,Hauts-de-France
2129,2220,Bruys,Bruys,49.2621681637,3.56863439754,2,Aisne,32.0,Hauts-de-France
2130,2500,Bucilly,Bucilly,49.8658103548,4.09323369949,2,Aisne,32.0,Hauts-de-France
2131,2880,Bucy-le-Long,Bucy-le-Long,49.3884447185,3.39828602712,2,Aisne,32.0,Hauts-de-France
2132,2870,Bucy-lès-Cerny,Bucy-lès-Cerny,49.5790852566,3.496908306,2,Aisne,32.0,Hauts-de-France
2133,2350,Bucy-lès-Pierrepont,Bucy-lès-Pierrepont,49.6467998089,3.90358311553,2,Aisne,32.0,Hauts-de-France
2134,2500,Buire,Buire,49.9070296259,4.05674542304,2,Aisne,32.0,Hauts-de-France
2135,2620,Buironfosse,Buironfosse,49.9577111138,3.838016082,2,Aisne,32.0,Hauts-de-France
2136,2140,Burelles,Burelles,49.7687046874,3.91196369709,2,Aisne,32.0,Hauts-de-France
2137,2810,Bussiares,Bussiares,49.0765910572,3.25026191909,2,Aisne,32.0,Hauts-de-France
2138,2200,Buzancy,Buzancy,49.3099528163,3.3478744079,2,Aisne,32.0,Hauts-de-France
2139,2300,Caillouël-Crépigny,Caillouël-Crépigny,49.6176055636,3.12169527347,2,Aisne,32.0,Hauts-de-France
2140,2300,Camelin,Camelin,49.5205248253,3.12854853594,2,Aisne,32.0,Hauts-de-France
2141,2260,La Capelle,Capelle,49.9732109539,3.91398483546,2,Aisne,32.0,Hauts-de-France
2142,2680,Castres,Castres,49.8013894137,3.25325245088,2,Aisne,32.0,Hauts-de-France
2143,2420,Le Catelet,Catelet,50.0009779444,3.2423098464,2,Aisne,32.0,Hauts-de-France
2144,2490,Caulaincourt,Caulaincourt,49.864658382,3.11126489473,2,Aisne,32.0,Hauts-de-France
2145,2300,Caumont,Caumont,49.6372659106,3.17347612819,2,Aisne,32.0,Hauts-de-France
2146,2330,Celles-lès-Condé,Celles-lès-Condé,49.0148161041,3.57007423847,2,Aisne,32.0,Hauts-de-France
2148,2370,Celles-sur-Aisne,Celles-sur-Aisne,49.4159264546,3.47446927431,2,Aisne,32.0,Hauts-de-France
2149,2240,Cerizy,Cerizy,49.7670333979,3.33255021354,2,Aisne,32.0,Hauts-de-France
2150,2860,Cerny-en-Laonnois,Cerny-en-Laonnois,49.4500150087,3.67982439455,2,Aisne,32.0,Hauts-de-France
2151,2870,Cerny-lès-Bucy,Cerny-lès-Bucy,49.5778658953,3.54646763896,2,Aisne,32.0,Hauts-de-France
2152,2220,Cerseuil,Cerseuil,49.324784775,3.51746919082,2,Aisne,32.0,Hauts-de-France
2153,2320,Cessières,Cessières,49.5595788079,3.50190405701,2,Aisne,32.0,Hauts-de-France
2154,2200,Chacrise,Chacrise,49.3002009035,3.39759102537,2,Aisne,32.0,Hauts-de-France
2155,2000,Chaillevois,Chaillevois,49.5081654549,3.52234605948,2,Aisne,32.0,Hauts-de-France
2156,2270,Chalandry,Chalandry,49.6702675165,3.64445509533,2,Aisne,32.0,Hauts-de-France
2157,2000,Chambry,Chambry,49.5986366056,3.67200832611,2,Aisne,32.0,Hauts-de-France
2158,2860,Chamouille,Chamouille,49.4720646954,3.67062673062,2,Aisne,32.0,Hauts-de-France
2159,2670,Champs,Champs,49.5434967943,3.2618311238,2,Aisne,32.0,Hauts-de-France
2160,2340,Chaourse,Chaourse,49.7007898116,3.98562292281,2,Aisne,32.0,Hauts-de-France
2162,2570,La Chapelle-sur-Chézy,Chapelle-sur-Chézy,48.9492049177,3.37662807022,2,Aisne,32.0,Hauts-de-France
2163,2310,Charly-sur-Marne,Charly-sur-Marne,48.9898678258,3.29365157876,2,Aisne,32.0,Hauts-de-France
2164,2850,Le Charmel,Charmel,49.1121866037,3.54125960951,2,Aisne,32.0,Hauts-de-France
2165,2800,Charmes,Charmes,49.6508532429,3.38525104222,2,Aisne,32.0,Hauts-de-France
2166,2400,Chartèves,Chartèves,49.0898127369,3.50871838479,2,Aisne,32.0,Hauts-de-France
2167,2370,Chassemy,Chassemy,49.3783410842,3.50271467967,2,Aisne,32.0,Hauts-de-France
2168,2400,Château-Thierry,Château-Thierry,49.0564070801,3.38160004843,2,Aisne,32.0,Hauts-de-France
2169,2270,Châtillon-lès-Sons,Châtillon-lès-Sons,49.7618503091,3.70312508858,2,Aisne,32.0,Hauts-de-France
2170,2240,Châtillon-sur-Oise,Châtillon-sur-Oise,49.7938161671,3.41630401708,2,Aisne,32.0,Hauts-de-France
2171,2160,Chaudardes,Chaudardes,49.3962562981,3.78942153696,2,Aisne,32.0,Hauts-de-France
2172,2200,Chaudun,Chaudun,49.3150223009,3.25276338247,2,Aisne,32.0,Hauts-de-France
2173,2300,Chauny,Chauny,49.619880673,3.21875355041,2,Aisne,32.0,Hauts-de-France
2174,2000,Chavignon,Chavignon,49.4794437147,3.51936895626,2,Aisne,32.0,Hauts-de-France
2175,2880,Chavigny,Chavigny,49.4232730431,3.30567490669,2,Aisne,32.0,Hauts-de-France
2176,2370,Chavonne,Chavonne,49.4073162185,3.56243209622,2,Aisne,32.0,Hauts-de-France
2177,2860,Chérêt,Chérêt,49.5141661683,3.68718851388,2,Aisne,32.0,Hauts-de-France
2178,2860,Chermizy-Ailles,Chermizy-Ailles,49.4629888139,3.71995479046,2,Aisne,32.0,Hauts-de-France
2179,2220,Chéry-Chartreuve,Chéry-Chartreuve,49.2556867214,3.60484629397,2,Aisne,32.0,Hauts-de-France
2180,2000,Chéry-lès-Pouilly,Chéry-lès-Pouilly,49.6488389918,3.59416271271,2,Aisne,32.0,Hauts-de-France
2181,2360,Chéry-lès-Rozoy,Chéry-lès-Rozoy,49.7222192886,4.1011989282,2,Aisne,32.0,Hauts-de-France
2182,2250,Chevennes,Chevennes,49.818366417,3.7371313317,2,Aisne,32.0,Hauts-de-France
2183,2000,Chevregny,Chevregny,49.4661009452,3.59365333616,2,Aisne,32.0,Hauts-de-France
2184,2270,Chevresis-Monceau,Chevresis-Monceau,49.7616780422,3.5837583969,2,Aisne,32.0,Hauts-de-France
2185,2810,Chézy-en-Orxois,Chézy-en-Orxois,49.1268031885,3.16759094422,2,Aisne,32.0,Hauts-de-France
2186,2570,Chézy-sur-Marne,Chézy-sur-Marne,48.983996655,3.38226485102,2,Aisne,32.0,Hauts-de-France
2187,2400,Chierry,Chierry,49.035155356,3.43302324278,2,Aisne,32.0,Hauts-de-France
2188,2120,Chigny,Chigny,49.9298846139,3.77489645427,2,Aisne,32.0,Hauts-de-France
2189,2350,Chivres-en-Laonnois,Chivres-en-Laonnois,49.6268606782,3.85603255601,2,Aisne,32.0,Hauts-de-France
2190,2880,Chivres-Val,Chivres-Val,49.4029298198,3.43836038727,2,Aisne,32.0,Hauts-de-France
2191,2000,Chivy-lès-Étouvelles,Chivy-lès-Étouvelles,49.5326303582,3.58562168803,2,Aisne,32.0,Hauts-de-France
2192,2210,Chouy,Chouy,49.2167334121,3.24708004454,2,Aisne,32.0,Hauts-de-France
2193,2130,Cierges,Cierges,49.1648316775,3.60411788847,2,Aisne,32.0,Hauts-de-France
2194,2250,Cilly,Cilly,49.7490011958,3.84000022806,2,Aisne,32.0,Hauts-de-France
2195,2220,Ciry-Salsogne,Ciry-Salsogne,49.3674868367,3.46778299062,2,Aisne,32.0,Hauts-de-France
2196,2000,Clacy-et-Thierret,Clacy-et-Thierret,49.5524137158,3.56557185412,2,Aisne,32.0,Hauts-de-France
2197,2260,Clairfontaine,Clairfontaine,49.9739945177,3.98660655282,2,Aisne,32.0,Hauts-de-France
2198,2880,Clamecy,Clamecy,49.4281077825,3.36378754787,2,Aisne,32.0,Hauts-de-France
2199,2440,Clastres,Clastres,49.7488769741,3.2302033407,2,Aisne,32.0,Hauts-de-France
2200,2340,Clermont-les-Fermes,Clermont-les-Fermes,49.6601654327,3.94320327145,2,Aisne,32.0,Hauts-de-France
2201,2600,Cœuvres-et-Valsery,Cœuvres-et-Valsery,49.3295432232,3.15290453511,2,Aisne,32.0,Hauts-de-France
2203,2210,Coincy,Coincy,49.1632280955,3.43633795455,2,Aisne,32.0,Hauts-de-France
2204,2360,Coingt,Coingt,49.7923246397,4.09591303887,2,Aisne,32.0,Hauts-de-France
2205,2860,Colligis-Crandelain,Colligis-Crandelain,49.4666159338,3.63042181928,2,Aisne,32.0,Hauts-de-France
2206,2120,Colonfay,Colonfay,49.8584586783,3.71138683561,2,Aisne,32.0,Hauts-de-France
2207,2300,Commenchon,Commenchon,49.6416913377,3.15095437349,2,Aisne,32.0,Hauts-de-France
2208,2160,Concevreux,Concevreux,49.3764478648,3.78830446161,2,Aisne,32.0,Hauts-de-France
2209,2330,Condé-en-Brie,Condé-en-Brie,49.0016101753,3.56116999962,2,Aisne,32.0,Hauts-de-France
2210,2370,Condé-sur-Aisne,Condé-sur-Aisne,49.4007552828,3.46571591087,2,Aisne,32.0,Hauts-de-France
2211,2190,Condé-sur-Suippe,Condé-sur-Suippe,49.4138370327,3.94498449027,2,Aisne,32.0,Hauts-de-France
2212,2700,Condren,Condren,49.6370236167,3.27726632135,2,Aisne,32.0,Hauts-de-France
2213,2330,Connigis,Connigis,49.0359363932,3.53287282671,2,Aisne,32.0,Hauts-de-France
2214,2680,Contescourt,Contescourt,49.7916934603,3.23428350737,2,Aisne,32.0,Hauts-de-France
2215,2820,Corbeny,Corbeny,49.4620558975,3.82654082441,2,Aisne,32.0,Hauts-de-France
2216,2600,Corcy,Corcy,49.2549892095,3.19724367023,2,Aisne,32.0,Hauts-de-France
2217,2380,Coucy-le-Château-Auffrique,Coucy-le-Château-Auffrique,49.5159709578,3.31548892957,2,Aisne,32.0,Hauts-de-France
2218,2840,Coucy-lès-Eppes,Coucy-lès-Eppes,49.5566159059,3.77716711865,2,Aisne,32.0,Hauts-de-France
2219,2380,Coucy-la-Ville,Coucy-la-Ville,49.5405792355,3.34372156034,2,Aisne,32.0,Hauts-de-France
2220,2130,Coulonges-Cohan,Coulonges-Cohan,49.1980463524,3.62776592985,2,Aisne,32.0,Hauts-de-France
2221,2310,Coupru,Coupru,49.0313536349,3.2743801467,2,Aisne,32.0,Hauts-de-France
2222,2800,Courbes,Courbes,49.6815888779,3.46004834981,2,Aisne,32.0,Hauts-de-France
2223,2330,Courboin,Courboin,48.9960917184,3.50690687861,2,Aisne,32.0,Hauts-de-France
2224,2220,Courcelles-sur-Vesle,Courcelles-sur-Vesle,49.348025885,3.57684035869,2,Aisne,32.0,Hauts-de-France
2225,2810,Courchamps,Courchamps,49.1164230809,3.26303714363,2,Aisne,32.0,Hauts-de-France
2226,2200,Courmelles,Courmelles,49.3434328339,3.30199112892,2,Aisne,32.0,Hauts-de-France
2227,2130,Courmont,Courmont,49.1377444173,3.57546880498,2,Aisne,32.0,Hauts-de-France
2228,2850,Courtemont-Varennes,Courtemont-Varennes,49.0715288855,3.54168079771,2,Aisne,32.0,Hauts-de-France
2229,2820,Courtrizy-et-Fussigny,Courtrizy-et-Fussigny,49.5140957547,3.79503800634,2,Aisne,32.0,Hauts-de-France
2230,2220,Couvrelles,Couvrelles,49.3339841009,3.48486954064,2,Aisne,32.0,Hauts-de-France
2231,2270,Couvron-et-Aumencourt,Couvron-et-Aumencourt,49.6458776473,3.52446684584,2,Aisne,32.0,Hauts-de-France
2232,2600,Coyolles,Coyolles,49.2133089693,3.01306173751,2,Aisne,32.0,Hauts-de-France
2233,2130,Cramaille,Cramaille,49.2285541737,3.45227303073,2,Aisne,32.0,Hauts-de-France
2234,2160,Craonne,Craonne,49.4476368348,3.79203280761,2,Aisne,32.0,Hauts-de-France
2235,2160,Craonnelle,Craonnelle,49.4254999308,3.77686483236,2,Aisne,32.0,Hauts-de-France
2236,2380,Crécy-au-Mont,Crécy-au-Mont,49.4839031807,3.31195074309,2,Aisne,32.0,Hauts-de-France
2237,2270,Crécy-sur-Serre,Crécy-sur-Serre,49.698624191,3.62256564798,2,Aisne,32.0,Hauts-de-France
2238,2870,Crépy,Crépy,49.6082534854,3.5125070585,2,Aisne,32.0,Hauts-de-France
2239,2650,Crézancy,Crézancy,49.0428713757,3.51138201699,2,Aisne,32.0,Hauts-de-France
2240,2110,Croix-Fonsomme,Croix-Fonsomme,49.9306761102,3.39430326005,2,Aisne,32.0,Hauts-de-France
2241,2210,La Croix-sur-Ourcq,Croix-sur-Ourcq,49.1598010602,3.35048905306,2,Aisne,32.0,Hauts-de-France
2242,2310,Crouttes-sur-Marne,Crouttes-sur-Marne,48.9791200153,3.24757642131,2,Aisne,32.0,Hauts-de-France
2243,2880,Crouy,Crouy,49.4078535405,3.36640020468,2,Aisne,32.0,Hauts-de-France
2244,2120,Crupilly,Crupilly,49.9313828796,3.75249198254,2,Aisne,32.0,Hauts-de-France
2245,2880,Cuffies,Cuffies,49.4081126802,3.32236958826,2,Aisne,32.0,Hauts-de-France
2246,2480,Cugny,Cugny,49.7031009123,3.15424498862,2,Aisne,32.0,Hauts-de-France
2248,2350,Cuirieux,Cuirieux,49.6834404265,3.81994750866,2,Aisne,32.0,Hauts-de-France
2249,2220,Cuiry-Housse,Cuiry-Housse,49.2904033438,3.48843248507,2,Aisne,32.0,Hauts-de-France
2250,2160,Cuiry-lès-Chaudardes,Cuiry-lès-Chaudardes,49.3897631676,3.76227512623,2,Aisne,32.0,Hauts-de-France
2251,2360,Cuiry-lès-Iviers,Cuiry-lès-Iviers,49.7661751176,4.10397751712,2,Aisne,32.0,Hauts-de-France
2252,2160,Cuissy-et-Geny,Cuissy-et-Geny,49.4034575347,3.70612307803,2,Aisne,32.0,Hauts-de-France
2253,2200,Cuisy-en-Almont,Cuisy-en-Almont,49.4207417064,3.24887510168,2,Aisne,32.0,Hauts-de-France
2254,2600,Cutry,Cutry,49.3442753875,3.19127169549,2,Aisne,32.0,Hauts-de-France
2255,2220,Cys-la-Commune,Cys-la-Commune,49.3837163848,3.57235420125,2,Aisne,32.0,Hauts-de-France
2256,2140,Dagny-Lambercy,Dagny-Lambercy,49.7690562311,4.04218248631,2,Aisne,32.0,Hauts-de-France
2257,2680,Dallon,Dallon,49.8240617542,3.23031219742,2,Aisne,32.0,Hauts-de-France
2258,2470,Dammard,Dammard,49.1470522556,3.17719709632,2,Aisne,32.0,Hauts-de-France
2259,2600,Dampleux,Dampleux,49.2414407733,3.14413128827,2,Aisne,32.0,Hauts-de-France
2260,2800,Danizy,Danizy,49.6665738585,3.40089557013,2,Aisne,32.0,Hauts-de-France
2261,2270,Dercy,Dercy,49.709705981,3.68499803784,2,Aisne,32.0,Hauts-de-France
2262,2700,Deuillet,Deuillet,49.6285991184,3.36051598302,2,Aisne,32.0,Hauts-de-France
2263,2220,Dhuizel,Dhuizel,49.3602201297,3.61487590771,2,Aisne,32.0,Hauts-de-France
2264,2340,Dizy-le-Gros,Dizy-le-Gros,49.6355575735,4.01312880234,2,Aisne,32.0,Hauts-de-France
2265,2360,Dohis,Dohis,49.7667554096,4.14178746545,2,Aisne,32.0,Hauts-de-France
2266,2360,Dolignon,Dolignon,49.7338298517,4.08637882793,2,Aisne,32.0,Hauts-de-France
2267,2600,Dommiers,Dommiers,49.3290731499,3.21634686939,2,Aisne,32.0,Hauts-de-France
2268,2310,Domptin,Domptin,49.0156995656,3.27296497779,2,Aisne,32.0,Hauts-de-France
2269,2450,Dorengt,Dorengt,49.9652064178,3.7033753973,2,Aisne,32.0,Hauts-de-France
2270,2590,Douchy,Douchy,49.7940905147,3.13035849025,2,Aisne,32.0,Hauts-de-France
2271,2130,Dravegny,Dravegny,49.2391906053,3.64128453803,2,Aisne,32.0,Hauts-de-France
2272,2210,Droizy,Droizy,49.2773564352,3.38965007811,2,Aisne,32.0,Hauts-de-France
2273,2480,Dury,Dury,49.751235296,3.13377121735,2,Aisne,32.0,Hauts-de-France
2274,2350,Ébouleau,Ébouleau,49.6781110152,3.88259465732,2,Aisne,32.0,Hauts-de-France
2275,2500,Effry,Effry,49.9191180654,3.98790173223,2,Aisne,32.0,Hauts-de-France
2276,2260,Englancourt,Englancourt,49.9258825845,3.80718694445,2,Aisne,32.0,Hauts-de-France
2277,2290,Épagny,Épagny,49.471791053,3.25384432012,2,Aisne,32.0,Hauts-de-France
2278,2500,Éparcy,Éparcy,49.8861370225,4.0702371205,2,Aisne,32.0,Hauts-de-France
2279,2400,Épaux-Bézu,Épaux-Bézu,49.1029988371,3.35359350285,2,Aisne,32.0,Hauts-de-France
2280,2400,Épieds,Épieds,49.1045180167,3.45072347386,2,Aisne,32.0,Hauts-de-France
2281,2540,L'Épine-aux-Bois,Épine-aux-Bois,48.8992804015,3.44384138078,2,Aisne,32.0,Hauts-de-France
2282,2840,Eppes,Eppes,49.5523855068,3.73980858367,2,Aisne,32.0,Hauts-de-France
2283,2250,Erlon,Erlon,49.7348278249,3.70534450333,2,Aisne,32.0,Hauts-de-France
2284,2260,Erloy,Erloy,49.9195909244,3.83764920476,2,Aisne,32.0,Hauts-de-France
2286,2170,Esquéhéries,Esquéhéries,49.9822300914,3.75309920982,2,Aisne,32.0,Hauts-de-France
2287,2690,Essigny-le-Grand,Essigny-le-Grand,49.7740780116,3.27214459324,2,Aisne,32.0,Hauts-de-France
2288,2100,Essigny-le-Petit,Essigny-le-Petit,49.8961825414,3.36742260207,2,Aisne,32.0,Hauts-de-France
2289,2570,Essises,Essises,48.9666904843,3.41396491705,2,Aisne,32.0,Hauts-de-France
2290,2400,Essômes-sur-Marne,Essômes-sur-Marne,49.0341132047,3.34014174183,2,Aisne,32.0,Hauts-de-France
2291,2420,Estrées,Estrées,49.9705842912,3.2801536166,2,Aisne,32.0,Hauts-de-France
2292,2400,Étampes-sur-Marne,Étampes-sur-Marne,49.0317558536,3.41777664616,2,Aisne,32.0,Hauts-de-France
2293,2110,Étaves-et-Bocquiaux,Étaves-et-Bocquiaux,49.9310354275,3.45081301205,2,Aisne,32.0,Hauts-de-France
2294,2000,Étouvelles,Étouvelles,49.5186450995,3.58156180986,2,Aisne,32.0,Hauts-de-France
2295,2580,Étréaupont,Étréaupont,49.8962633822,3.92348915288,2,Aisne,32.0,Hauts-de-France
2296,2590,Étreillers,Étreillers,49.8325776228,3.15800068609,2,Aisne,32.0,Hauts-de-France
2297,2400,Étrépilly,Étrépilly,49.0822681369,3.34802063568,2,Aisne,32.0,Hauts-de-France
2298,2510,Étreux,Étreux,49.9996010721,3.65890491685,2,Aisne,32.0,Hauts-de-France
2299,2190,Évergnicourt,Évergnicourt,49.4564306975,4.03631753944,2,Aisne,32.0,Hauts-de-France
2301,2320,Faucoucourt,Faucoucourt,49.5334418244,3.46663902605,2,Aisne,32.0,Hauts-de-France
2302,2600,Faverolles,Faverolles,49.227064775,3.17814481548,2,Aisne,32.0,Hauts-de-France
2303,2100,Fayet,Fayet,49.8710844824,3.25278845948,2,Aisne,32.0,Hauts-de-France
2304,2800,La Fère,Fère,49.6662828073,3.36938834693,2,Aisne,32.0,Hauts-de-France
2305,2130,Fère-en-Tardenois,Fère-en-Tardenois,49.1875000917,3.51106425515,2,Aisne,32.0,Hauts-de-France
2306,2270,La Ferté-Chevresis,Ferté-Chevresis,49.7409973498,3.55129770695,2,Aisne,32.0,Hauts-de-France
2307,2460,La Ferté-Milon,Ferté-Milon,49.1759874423,3.14237641756,2,Aisne,32.0,Hauts-de-France
2308,2450,Fesmy-le-Sart,Fesmy-le-Sart,50.0482154856,3.69825469199,2,Aisne,32.0,Hauts-de-France
2309,2840,Festieux,Festieux,49.5252642949,3.76013631694,2,Aisne,32.0,Hauts-de-France
2310,2110,Fieulaine,Fieulaine,49.9018502295,3.44594045878,2,Aisne,32.0,Hauts-de-France
2311,2000,Filain,Filain,49.4528807514,3.5574063541,2,Aisne,32.0,Hauts-de-France
2312,2260,La Flamengrie,Flamengrie,50.0002036206,3.92466690244,2,Aisne,32.0,Hauts-de-France
2313,2120,Flavigny-le-Grand-et-Beaurain,Flavigny-le-Grand-et-Beaurain,49.8865505663,3.67406409367,2,Aisne,32.0,Hauts-de-France
2315,2520,Flavy-le-Martel,Flavy-le-Martel,49.7047240534,3.19451403575,2,Aisne,32.0,Hauts-de-France
2316,2600,Fleury,Fleury,49.2652863131,3.15947064674,2,Aisne,32.0,Hauts-de-France
2317,2590,Fluquières,Fluquières,49.800435087,3.15658582012,2,Aisne,32.0,Hauts-de-France
2318,2670,Folembray,Folembray,49.5492820594,3.29319165625,2,Aisne,32.0,Hauts-de-France
2319,2110,Fonsomme,Fonsomme,49.9012467271,3.39650664791,2,Aisne,32.0,Hauts-de-France
2320,2680,Fontaine-lès-Clercs,Fontaine-lès-Clercs,49.8078439274,3.21253412905,2,Aisne,32.0,Hauts-de-France
2321,2140,Fontaine-lès-Vervins,Fontaine-lès-Vervins,49.8537390603,3.90543025367,2,Aisne,32.0,Hauts-de-France
2322,2110,Fontaine-Notre-Dame,Fontaine-Notre-Dame,49.8785724713,3.42380596752,2,Aisne,32.0,Hauts-de-France
2323,2110,Fontaine-Uterte,Fontaine-Uterte,49.9252841672,3.36796234214,2,Aisne,32.0,Hauts-de-France
2324,2170,Fontenelle,Fontenelle,50.0309452362,3.84625365761,2,Aisne,32.0,Hauts-de-France
2326,2290,Fontenoy,Fontenoy,49.4099999437,3.19454758662,2,Aisne,32.0,Hauts-de-France
2327,2590,Foreste,Foreste,49.8055794029,3.09615936707,2,Aisne,32.0,Hauts-de-France
2328,2650,Fossoy,Fossoy,49.044990122,3.48523126715,2,Aisne,32.0,Hauts-de-France
2329,2870,Fourdrain,Fourdrain,49.6194184451,3.46049121118,2,Aisne,32.0,Hauts-de-France
2330,2760,Francilly-Selency,Francilly-Selency,49.8546596853,3.22822036861,2,Aisne,32.0,Hauts-de-France
2331,2140,Franqueville,Franqueville,49.8164125588,3.79770261738,2,Aisne,32.0,Hauts-de-France
2332,2130,Fresnes-en-Tardenois,Fresnes-en-Tardenois,49.1427948273,3.54893406985,2,Aisne,32.0,Hauts-de-France
2333,2380,Fresnes-sous-Coucy,Fresnes-sous-Coucy,49.5548078585,3.37018022508,2,Aisne,32.0,Hauts-de-France
2334,2230,Fresnoy-le-Grand,Fresnoy-le-Grand,49.9540724704,3.41858032499,2,Aisne,32.0,Hauts-de-France
2335,2800,Fressancourt,Fressancourt,49.6284783975,3.42727910427,2,Aisne,32.0,Hauts-de-France
2336,2700,Frières-Faillouël,Frières-Faillouël,49.6835552621,3.23680430341,2,Aisne,32.0,Hauts-de-France
2337,2260,Froidestrées,Froidestrées,49.9427092508,3.91032175248,2,Aisne,32.0,Hauts-de-France
2338,2270,Froidmont-Cohartille,Froidmont-Cohartille,49.6818768902,3.72070844849,2,Aisne,32.0,Hauts-de-France
2339,2810,Gandelu,Gandelu,49.0832089104,3.18156231552,2,Aisne,32.0,Hauts-de-France
2340,2430,Gauchy,Gauchy,49.8234688599,3.28649189661,2,Aisne,32.0,Hauts-de-France
2341,2140,Gercy,Gercy,49.8158108138,3.87133277309,2,Aisne,32.0,Hauts-de-France
2342,2260,Gergny,Gergny,49.9326319225,3.92972384714,2,Aisne,32.0,Hauts-de-France
2343,2590,Germaine,Germaine,49.8124843843,3.11903042429,2,Aisne,32.0,Hauts-de-France
2344,2160,Gernicourt,Gernicourt,49.3952382352,3.86382109909,2,Aisne,32.0,Hauts-de-France
2345,2440,Gibercourt,Gibercourt,49.7393520234,3.28269647304,2,Aisne,32.0,Hauts-de-France
2346,2350,Gizy,Gizy,49.6104960814,3.76786152197,2,Aisne,32.0,Hauts-de-France
2347,2400,Gland,Gland,49.0579740538,3.45713931457,2,Aisne,32.0,Hauts-de-France
2349,2820,Goudelancourt-lès-Berrieux,Goudelancourt-lès-Berrieux,49.4946764579,3.85858670968,2,Aisne,32.0,Hauts-de-France
2350,2350,Goudelancourt-lès-Pierrepont,Goudelancourt-lès-Pierrepont,49.6783296824,3.85162740345,2,Aisne,32.0,Hauts-de-France
2351,2130,Goussancourt,Goussancourt,49.1608459229,3.65658681802,2,Aisne,32.0,Hauts-de-France
2352,2420,Gouy,Gouy,49.9987486908,3.26458305638,2,Aisne,32.0,Hauts-de-France
2353,2350,Grandlup-et-Fay,Grandlup-et-Fay,49.6512687794,3.73646950468,2,Aisne,32.0,Hauts-de-France
2354,2360,Grandrieux,Grandrieux,49.7291718471,4.1879249496,2,Aisne,32.0,Hauts-de-France
2355,2100,Gricourt,Gricourt,49.8869947757,3.23960817466,2,Aisne,32.0,Hauts-de-France
2356,2210,Grisolles,Grisolles,49.130183511,3.37217369933,2,Aisne,32.0,Hauts-de-France
2357,2140,Gronard,Gronard,49.7963196915,3.88176918551,2,Aisne,32.0,Hauts-de-France
2358,2110,Grougis,Grougis,49.9508110437,3.53098081744,2,Aisne,32.0,Hauts-de-France
2359,2680,Grugies,Grugies,49.8100941328,3.2751623814,2,Aisne,32.0,Hauts-de-France
2360,2190,Guignicourt,Guignicourt,49.4433017606,3.95534582458,2,Aisne,32.0,Hauts-de-France
2361,2120,Guise,Guise,49.8960415076,3.62476062929,2,Aisne,32.0,Hauts-de-France
2362,2300,Guivry,Guivry,49.651625761,3.12103476493,2,Aisne,32.0,Hauts-de-France
2363,2300,Guny,Guny,49.5120153085,3.26082658052,2,Aisne,32.0,Hauts-de-France
2364,2160,Guyencourt,Guyencourt,49.3573380108,3.84132930883,2,Aisne,32.0,Hauts-de-France
2366,2510,Hannapes,Hannapes,49.9771158104,3.61442642232,2,Aisne,32.0,Hauts-de-France
2367,2480,Happencourt,Happencourt,49.7825905619,3.1831286327,2,Aisne,32.0,Hauts-de-France
2368,2600,Haramont,Haramont,49.2872759039,3.03148977109,2,Aisne,32.0,Hauts-de-France
2369,2140,Harcigny,Harcigny,49.80256362,3.9828364762,2,Aisne,32.0,Hauts-de-France
2370,2420,Hargicourt,Hargicourt,49.9664492878,3.19055510378,2,Aisne,32.0,Hauts-de-France
2371,2100,Harly,Harly,49.8407051764,3.33484724239,2,Aisne,32.0,Hauts-de-France
2372,2210,Hartennes-et-Taux,Hartennes-et-Taux,49.2789534457,3.35763287633,2,Aisne,32.0,Hauts-de-France
2373,2140,Hary,Hary,49.797388651,3.91927403736,2,Aisne,32.0,Hauts-de-France
2374,2420,Lehaucourt,Lehaucourt,49.911760676,3.27675235436,2,Aisne,32.0,Hauts-de-France
2375,2810,Hautevesnes,Hautevesnes,49.1088469374,3.2356780284,2,Aisne,32.0,Hauts-de-France
2376,2120,Hauteville,Hauteville,49.8884981223,3.52369340599,2,Aisne,32.0,Hauts-de-France
2377,2140,Haution,Haution,49.8721128525,3.82719888249,2,Aisne,32.0,Hauts-de-France
2378,2500,La Hérie,Hérie,49.8838269882,4.04360657052,2,Aisne,32.0,Hauts-de-France
2379,2120,Le Hérie-la-Viéville,Hérie-la-Viéville,49.8222697536,3.65376324724,2,Aisne,32.0,Hauts-de-France
2380,2440,Hinacourt,Hinacourt,49.7459956466,3.29422566384,2,Aisne,32.0,Hauts-de-France
2381,2500,Hirson,Hirson,49.9426458618,4.10483732841,2,Aisne,32.0,Hauts-de-France
2382,2760,Holnon,Holnon,49.8612556888,3.20085325892,2,Aisne,32.0,Hauts-de-France
2383,2720,Homblières,Homblières,49.8577543083,3.37495127984,2,Aisne,32.0,Hauts-de-France
2384,2140,Houry,Houry,49.7861780633,3.84806416077,2,Aisne,32.0,Hauts-de-France
2385,2250,Housset,Housset,49.7961649956,3.69539262425,2,Aisne,32.0,Hauts-de-France
2386,2510,Iron,Iron,49.9504309458,3.6652978953,2,Aisne,32.0,Hauts-de-France
2387,2240,Itancourt,Itancourt,49.803442885,3.34942752527,2,Aisne,32.0,Hauts-de-France
2388,2360,Iviers,Iviers,49.7858863872,4.13552902559,2,Aisne,32.0,Hauts-de-France
2389,2850,Jaulgonne,Jaulgonne,49.0895236955,3.53359601877,2,Aisne,32.0,Hauts-de-France
2390,2490,Jeancourt,Jeancourt,49.9288562683,3.14778805313,2,Aisne,32.0,Hauts-de-France
2391,2140,Jeantes,Jeantes,49.8127276252,4.06715502895,2,Aisne,32.0,Hauts-de-France
2392,2420,Joncourt,Joncourt,49.9601487798,3.30407272701,2,Aisne,32.0,Hauts-de-France
2393,2220,Jouaignes,Jouaignes,49.2928418789,3.52818628425,2,Aisne,32.0,Hauts-de-France
2395,2380,Jumencourt,Jumencourt,49.5122950231,3.34939792383,2,Aisne,32.0,Hauts-de-France
2396,2160,Jumigny,Jumigny,49.4083834603,3.72524669282,2,Aisne,32.0,Hauts-de-France
2397,2480,Jussy,Jussy,49.7172050931,3.23611732777,2,Aisne,32.0,Hauts-de-France
2398,2880,Juvigny,Juvigny,49.44857677,3.31533781107,2,Aisne,32.0,Hauts-de-France
2399,2190,Juvincourt-et-Damary,Juvincourt-et-Damary,49.4468853425,3.89147198339,2,Aisne,32.0,Hauts-de-France
2400,2880,Laffaux,Laffaux,49.4494770874,3.42995693216,2,Aisne,32.0,Hauts-de-France
2401,2140,Laigny,Laigny,49.8631466398,3.86133626518,2,Aisne,32.0,Hauts-de-France
2402,2590,Lanchy,Lanchy,49.8292105187,3.07415428089,2,Aisne,32.0,Hauts-de-France
2403,2120,Landifay-et-Bertaignemont,Landifay-et-Bertaignemont,49.8255553996,3.60399989958,2,Aisne,32.0,Hauts-de-France
2404,2140,Landouzy-la-Cour,Landouzy-la-Cour,49.8441415789,3.99358286375,2,Aisne,32.0,Hauts-de-France
2405,2140,Landouzy-la-Ville,Landouzy-la-Ville,49.8562890185,4.05045506584,2,Aisne,32.0,Hauts-de-France
2406,2380,Landricourt,Landricourt,49.505420346,3.36950507041,2,Aisne,32.0,Hauts-de-France
2407,2000,Laniscourt,Laniscourt,49.5469118723,3.53406747358,2,Aisne,32.0,Hauts-de-France
2408,2000,Laon,Laon,49.5679724897,3.62089561902,2,Aisne,32.0,Hauts-de-France
2409,2150,Lappion,Lappion,49.5898015281,3.96457967258,2,Aisne,32.0,Hauts-de-France
2410,2600,Largny-sur-Automne,Largny-sur-Automne,49.2610748419,3.05411123113,2,Aisne,32.0,Hauts-de-France
2411,2210,Latilly,Latilly,49.1538863119,3.31218468893,2,Aisne,32.0,Hauts-de-France
2412,2210,Launoy,Launoy,49.2629984132,3.4054374314,2,Aisne,32.0,Hauts-de-France
2413,2860,Laval-en-Laonnois,Laval-en-Laonnois,49.5029905064,3.58758242212,2,Aisne,32.0,Hauts-de-France
2414,2450,Lavaqueresse,Lavaqueresse,49.9465387553,3.7166420191,2,Aisne,32.0,Hauts-de-France
2415,2600,Laversine,Laversine,49.3528718857,3.15459651522,2,Aisne,32.0,Hauts-de-France
2416,2140,Lemé,Lemé,49.843926232,3.7576717994,2,Aisne,32.0,Hauts-de-France
2417,2420,Lempire,Lempire,49.9953429453,3.17401503527,2,Aisne,32.0,Hauts-de-France
2418,2260,Lerzy,Lerzy,49.9499258495,3.88135093149,2,Aisne,32.0,Hauts-de-France
2419,2170,Leschelle,Leschelle,49.9605709227,3.77740709683,2,Aisne,32.0,Hauts-de-France
2420,2100,Lesdins,Lesdins,49.9043632178,3.31462117869,2,Aisne,32.0,Hauts-de-France
2421,2220,Lesges,Lesges,49.309828392,3.50034767893,2,Aisne,32.0,Hauts-de-France
2422,2120,Lesquielles-Saint-Germain,Lesquielles-Saint-Germain,49.931687068,3.62808644318,2,Aisne,32.0,Hauts-de-France
2423,2380,Leuilly-sous-Coucy,Leuilly-sous-Coucy,49.4734455044,3.35288205414,2,Aisne,32.0,Hauts-de-France
2424,2880,Leury,Leury,49.4269529918,3.34130922178,2,Aisne,32.0,Hauts-de-France
2425,2500,Leuze,Leuze,49.8578215993,4.16963845435,2,Aisne,32.0,Hauts-de-France
2426,2420,Levergies,Levergies,49.9345380686,3.31185579217,2,Aisne,32.0,Hauts-de-France
2427,2220,Lhuys,Lhuys,49.2728528048,3.54230635286,2,Aisne,32.0,Hauts-de-France
2428,2810,Licy-Clignon,Licy-Clignon,49.102123319,3.26534900839,2,Aisne,32.0,Hauts-de-France
2429,2860,Lierval,Lierval,49.4874867517,3.62227691789,2,Aisne,32.0,Hauts-de-France
2430,2350,Liesse-Notre-Dame,Liesse-Notre-Dame,49.6108544067,3.81711786834,2,Aisne,32.0,Hauts-de-France
2431,2700,Liez,Liez,49.6923509874,3.30017368966,2,Aisne,32.0,Hauts-de-France
2432,2220,Limé,Limé,49.3234940469,3.55539520178,2,Aisne,32.0,Hauts-de-France
2433,2340,Lislet,Lislet,49.6757265054,4.02084295692,2,Aisne,32.0,Hauts-de-France
2434,2320,Lizy,Lizy,49.5119505422,3.47941613566,2,Aisne,32.0,Hauts-de-France
2435,2500,Logny-lès-Aubenton,Logny-lès-Aubenton,49.8330144048,4.2201280927,2,Aisne,32.0,Hauts-de-France
2438,2600,Longpont,Longpont,49.2843362442,3.22069360555,2,Aisne,32.0,Hauts-de-France
2439,2160,Les Septvallons,Septvallons,49.3603355862,3.65567844397,2,Aisne,32.0,Hauts-de-France
2440,2190,Lor,Lor,49.5296668744,4.05453884406,2,Aisne,32.0,Hauts-de-France
2441,2600,Louâtre,Louâtre,49.2527947078,3.24153629897,2,Aisne,32.0,Hauts-de-France
2442,2130,Loupeigne,Loupeigne,49.2411071956,3.5251073823,2,Aisne,32.0,Hauts-de-France
2443,2400,Lucy-le-Bocage,Lucy-le-Bocage,49.0549612755,3.27616704555,2,Aisne,32.0,Hauts-de-France
2444,2140,Lugny,Lugny,49.782281297,3.8121953982,2,Aisne,32.0,Hauts-de-France
2445,2500,Luzoir,Luzoir,49.9271348987,3.96025090337,2,Aisne,32.0,Hauts-de-France
2446,2440,Ly-Fontaine,Ly-Fontaine,49.732033107,3.31099377857,2,Aisne,32.0,Hauts-de-France
2447,2220,Maast-et-Violaine,Maast-et-Violaine,49.2931740531,3.45694908531,2,Aisne,32.0,Hauts-de-France
2448,2350,Mâchecourt,Mâchecourt,49.6516966172,3.83765995783,2,Aisne,32.0,Hauts-de-France
2449,2470,Macogny,Macogny,49.1590429097,3.21784708642,2,Aisne,32.0,Hauts-de-France
2450,2120,Macquigny,Macquigny,49.8732387452,3.57070489565,2,Aisne,32.0,Hauts-de-France
2451,2420,Magny-la-Fosse,Magny-la-Fosse,49.9371259007,3.27654031882,2,Aisne,32.0,Hauts-de-France
2452,2490,Maissemy,Maissemy,49.8929443672,3.1890371838,2,Aisne,32.0,Hauts-de-France
2453,2160,Maizy,Maizy,49.377259904,3.71616526094,2,Aisne,32.0,Hauts-de-France
2454,2190,La Malmaison,Malmaison,49.5165178767,4.00048717912,2,Aisne,32.0,Hauts-de-France
2455,2120,Malzy,Malzy,49.921297034,3.73000059946,2,Aisne,32.0,Hauts-de-France
2456,2300,Manicamp,Manicamp,49.5650654162,3.17962639988,2,Aisne,32.0,Hauts-de-France
2457,2350,Marchais,Marchais,49.5850707567,3.82150148626,2,Aisne,32.0,Hauts-de-France
2458,2330,Dhuys et Morin-en-Brie,Dhuys et Morin-en-Brie,48.8935786183,3.49268121283,2,Aisne,32.0,Hauts-de-France
2458,2540,Dhuys et Morin-en-Brie,Dhuys et Morin-en-Brie,48.8935786183,3.49268121283,2,Aisne,32.0,Hauts-de-France
2459,2720,Marcy,Marcy,49.8535898318,3.41135532201,2,Aisne,32.0,Hauts-de-France
2460,2250,Marcy-sous-Marle,Marcy-sous-Marle,49.7457495163,3.73453881149,2,Aisne,32.0,Hauts-de-France
2461,2300,Marest-Dampcourt,Marest-Dampcourt,49.59443854,3.14627124688,2,Aisne,32.0,Hauts-de-France
2462,2130,Mareuil-en-Dôle,Mareuil-en-Dôle,49.2424552782,3.56114326739,2,Aisne,32.0,Hauts-de-France
2463,2140,Marfontaine,Marfontaine,49.8080469097,3.7639268819,2,Aisne,32.0,Hauts-de-France
2464,2880,Margival,Margival,49.432719029,3.40572977303,2,Aisne,32.0,Hauts-de-France
2465,2810,Marigny-en-Orxois,Marigny-en-Orxois,49.0526386182,3.22281001734,2,Aisne,32.0,Hauts-de-France
2466,2470,Marizy-Sainte-Geneviève,Marizy-Sainte-Geneviève,49.1825477943,3.19814247608,2,Aisne,32.0,Hauts-de-France
2467,2470,Marizy-Saint-Mard,Marizy-Saint-Mard,49.1822693098,3.22799114728,2,Aisne,32.0,Hauts-de-France
2468,2250,Marle,Marle,49.7451393478,3.7652054501,2,Aisne,32.0,Hauts-de-France
2469,2120,Marly-Gomont,Marly-Gomont,49.8913737841,3.7849871912,2,Aisne,32.0,Hauts-de-France
2470,2500,Martigny,Martigny,49.866582249,4.13443052228,2,Aisne,32.0,Hauts-de-France
2471,2860,Martigny-Courpierre,Martigny-Courpierre,49.4900405005,3.6867077549,2,Aisne,32.0,Hauts-de-France
2472,2820,Mauregny-en-Haye,Mauregny-en-Haye,49.5406230877,3.79762834314,2,Aisne,32.0,Hauts-de-France
2473,2800,Mayot,Mayot,49.7090117255,3.39804766077,2,Aisne,32.0,Hauts-de-France
2474,2700,Mennessis,Mennessis,49.6918385873,3.27543313236,2,Aisne,32.0,Hauts-de-France
2475,2190,Menneville,Menneville,49.4303233528,4.00555747176,2,Aisne,32.0,Hauts-de-France
2476,2630,Mennevret,Mennevret,49.9919704555,3.55884133428,2,Aisne,32.0,Hauts-de-France
2477,2200,Mercin-et-Vaux,Mercin-et-Vaux,49.3705627456,3.27070140635,2,Aisne,32.0,Hauts-de-France
2478,2000,Merlieux-et-Fouquerolles,Merlieux-et-Fouquerolles,49.5137172169,3.49932983224,2,Aisne,32.0,Hauts-de-France
2480,2270,Mesbrecourt-Richecourt,Mesbrecourt-Richecourt,49.710385665,3.53739733076,2,Aisne,32.0,Hauts-de-France
2481,2720,Mesnil-Saint-Laurent,Mesnil-Saint-Laurent,49.8290188644,3.36454012617,2,Aisne,32.0,Hauts-de-France
2482,2160,Meurival,Meurival,49.3567698663,3.7590616765,2,Aisne,32.0,Hauts-de-France
2483,2240,Mézières-sur-Oise,Mézières-sur-Oise,49.7918999939,3.38740833653,2,Aisne,32.0,Hauts-de-France
2484,2650,Mézy-Moulins,Mézy-Moulins,49.0630074888,3.5122782761,2,Aisne,32.0,Hauts-de-France
2485,2200,Missy-aux-Bois,Missy-aux-Bois,49.3349407256,3.24662970633,2,Aisne,32.0,Hauts-de-France
2486,2350,Missy-lès-Pierrepont,Missy-lès-Pierrepont,49.6279354887,3.7841954065,2,Aisne,32.0,Hauts-de-France
2487,2880,Missy-sur-Aisne,Missy-sur-Aisne,49.3855898418,3.43829672684,2,Aisne,32.0,Hauts-de-France
2488,2110,Molain,Molain,50.03359227,3.52985658168,2,Aisne,32.0,Hauts-de-France
2489,2000,Molinchart,Molinchart,49.5624802928,3.53979641476,2,Aisne,32.0,Hauts-de-France
2490,2000,Monampteuil,Monampteuil,49.4760084468,3.57360176783,2,Aisne,32.0,Hauts-de-France
2491,2270,Monceau-le-Neuf-et-Faucouzy,Monceau-le-Neuf-et-Faucouzy,49.7845792788,3.63110860935,2,Aisne,32.0,Hauts-de-France
2492,2270,Monceau-lès-Leups,Monceau-lès-Leups,49.6617789272,3.48549133203,2,Aisne,32.0,Hauts-de-France
2493,2840,Monceau-le-Waast,Monceau-le-Waast,49.6217435488,3.71656668597,2,Aisne,32.0,Hauts-de-France
2494,2120,Monceau-sur-Oise,Monceau-sur-Oise,49.9097732744,3.69947432588,2,Aisne,32.0,Hauts-de-France
2495,2500,Mondrepuis,Mondrepuis,49.9637441269,4.05128113518,2,Aisne,32.0,Hauts-de-France
2496,2470,Monnes,Monnes,49.1458358775,3.22861820737,2,Aisne,32.0,Hauts-de-France
2497,2000,Mons-en-Laonnois,Mons-en-Laonnois,49.5379451828,3.55478457954,2,Aisne,32.0,Hauts-de-France
2498,2820,Montaigu,Montaigu,49.5531328831,3.84439779259,2,Aisne,32.0,Hauts-de-France
2499,2000,Montbavin,Montbavin,49.5295376592,3.51319789821,2,Aisne,32.0,Hauts-de-France
2500,2110,Montbrehain,Montbrehain,49.9642449609,3.35609147368,2,Aisne,32.0,Hauts-de-France
2501,2860,Montchâlons,Montchâlons,49.5131917425,3.72718965805,2,Aisne,32.0,Hauts-de-France
2502,2340,Montcornet,Montcornet,49.6890129328,4.02915061151,2,Aisne,32.0,Hauts-de-France
2503,2390,Mont-d'Origny,Mont-d'Origny,49.8514997521,3.52673568406,2,Aisne,32.0,Hauts-de-France
2504,2440,Montescourt-Lizerolles,Montescourt-Lizerolles,49.7360396205,3.26188923395,2,Aisne,32.0,Hauts-de-France
2505,2540,Montfaucon,Montfaucon,48.9466694844,3.43192398845,2,Aisne,32.0,Hauts-de-France
2506,2600,Montgobert,Montgobert,49.289626635,3.17404129063,2,Aisne,32.0,Hauts-de-France
2507,2210,Montgru-Saint-Hilaire,Montgru-Saint-Hilaire,49.1768851038,3.32722209943,2,Aisne,32.0,Hauts-de-France
2508,2860,Monthenault,Monthenault,49.4892743465,3.65592404446,2,Aisne,32.0,Hauts-de-France
2509,2400,Monthiers,Monthiers,49.1085987235,3.29437776654,2,Aisne,32.0,Hauts-de-France
2510,2330,Monthurel,Monthurel,49.0275310805,3.55187396803,2,Aisne,32.0,Hauts-de-France
2511,2110,Montigny-en-Arrouaise,Montigny-en-Arrouaise,49.9120067618,3.48306674241,2,Aisne,32.0,Hauts-de-France
2512,2810,Montigny-l'Allier,Montigny-l'Allier,49.1221418457,3.10744372815,2,Aisne,32.0,Hauts-de-France
2513,2250,Montigny-le-Franc,Montigny-le-Franc,49.6874788196,3.9183982393,2,Aisne,32.0,Hauts-de-France
2514,2290,Montigny-Lengrain,Montigny-Lengrain,49.3726900463,3.09924630011,2,Aisne,32.0,Hauts-de-France
2515,2330,Montigny-lès-Condé,Montigny-lès-Condé,48.9830055534,3.56635546224,2,Aisne,32.0,Hauts-de-France
2516,2250,Montigny-sous-Marle,Montigny-sous-Marle,49.7411090858,3.80397947574,2,Aisne,32.0,Hauts-de-France
2517,2270,Montigny-sur-Crécy,Montigny-sur-Crécy,49.7149248587,3.58368023998,2,Aisne,32.0,Hauts-de-France
2518,2330,Montlevon,Montlevon,48.9627005485,3.51543798042,2,Aisne,32.0,Hauts-de-France
2519,2340,Montloué,Montloué,49.6682396007,4.06275825607,2,Aisne,32.0,Hauts-de-France
2520,2220,Mont-Notre-Dame,Mont-Notre-Dame,49.2921467742,3.5821661713,2,Aisne,32.0,Hauts-de-France
2521,2310,Montreuil-aux-Lions,Montreuil-aux-Lions,49.0264607134,3.19454438663,2,Aisne,32.0,Hauts-de-France
2522,2360,Mont-Saint-Jean,Mont-Saint-Jean,49.7932196838,4.21125667983,2,Aisne,32.0,Hauts-de-France
2523,2220,Mont-Saint-Martin,Mont-Saint-Martin,49.2747967442,3.64275042996,2,Aisne,32.0,Hauts-de-France
2524,2400,Mont-Saint-Père,Mont-Saint-Père,49.0816980947,3.47715449247,2,Aisne,32.0,Hauts-de-France
2525,2100,Morcourt,Morcourt,49.8759595448,3.33400206098,2,Aisne,32.0,Hauts-de-France
2526,2360,Morgny-en-Thiérache,Morgny-en-Thiérache,49.7544947391,4.07631392389,2,Aisne,32.0,Hauts-de-France
2527,2290,Morsain,Morsain,49.4616807631,3.19122405616,2,Aisne,32.0,Hauts-de-France
2528,2600,Mortefontaine,Mortefontaine,49.3362768244,3.08053479514,2,Aisne,32.0,Hauts-de-France
2529,2270,Mortiers,Mortiers,49.6934508264,3.66411841593,2,Aisne,32.0,Hauts-de-France
2530,2160,Moulins,Moulins,49.4198471298,3.67884923026,2,Aisne,32.0,Hauts-de-France
2531,2160,Moussy-Verneuil,Moussy-Verneuil,49.4126815323,3.63718132987,2,Aisne,32.0,Hauts-de-France
2532,2610,Moÿ-de-l'Aisne,Moÿ-de-l'Aisne,49.750274961,3.35100553228,2,Aisne,32.0,Hauts-de-France
2533,2210,Muret-et-Crouttes,Muret-et-Crouttes,49.2781417953,3.43464742094,2,Aisne,32.0,Hauts-de-France
2534,2160,Muscourt,Muscourt,49.3595795698,3.74350239233,2,Aisne,32.0,Hauts-de-France
2535,2140,Nampcelles-la-Cour,Nampcelles-la-Cour,49.7765756098,4.00209910519,2,Aisne,32.0,Hauts-de-France
2536,2200,Nampteuil-sous-Muret,Nampteuil-sous-Muret,49.3051403969,3.43398003516,2,Aisne,32.0,Hauts-de-France
2537,2880,Nanteuil-la-Fosse,Nanteuil-la-Fosse,49.4338010814,3.44800041437,2,Aisne,32.0,Hauts-de-France
2538,2210,Nanteuil-Notre-Dame,Nanteuil-Notre-Dame,49.1907421685,3.41207163018,2,Aisne,32.0,Hauts-de-France
2539,2420,Nauroy,Nauroy,49.9508154668,3.25861980976,2,Aisne,32.0,Hauts-de-France
2540,2400,Nesles-la-Montagne,Nesles-la-Montagne,48.9997837313,3.44587892818,2,Aisne,32.0,Hauts-de-France
2541,2190,Neufchâtel-sur-Aisne,Neufchâtel-sur-Aisne,49.4367296826,4.0236471269,2,Aisne,32.0,Hauts-de-France
2542,2300,Neuflieux,Neuflieux,49.6163788231,3.15996849471,2,Aisne,32.0,Hauts-de-France
2543,2470,Neuilly-Saint-Front,Neuilly-Saint-Front,49.1626366671,3.26436269893,2,Aisne,32.0,Hauts-de-France
2544,2500,Neuve-Maison,Neuve-Maison,49.9286429779,4.04086730255,2,Aisne,32.0,Hauts-de-France
2545,2250,La Neuville-Bosmont,Neuville-Bosmont,49.7145039747,3.83367274994,2,Aisne,32.0,Hauts-de-France
2546,2300,La Neuville-en-Beine,Neuville-en-Beine,49.6762298475,3.15600362361,2,Aisne,32.0,Hauts-de-France
2547,2250,La Neuville-Housset,Neuville-Housset,49.7881379377,3.73171627307,2,Aisne,32.0,Hauts-de-France
2548,2450,La Neuville-lès-Dorengt,Neuville-lès-Dorengt,49.983064353,3.68565926181,2,Aisne,32.0,Hauts-de-France
2549,2100,Neuville-Saint-Amand,Neuville-Saint-Amand,49.8206477091,3.33360991741,2,Aisne,32.0,Hauts-de-France
2550,2860,Neuville-sur-Ailette,Neuville-sur-Ailette,49.4695141414,3.69819946444,2,Aisne,32.0,Hauts-de-France
2551,2880,Neuville-sur-Margival,Neuville-sur-Margival,49.4548729773,3.3986658815,2,Aisne,32.0,Hauts-de-France
2552,2390,Neuvillette,Neuvillette,49.8554002239,3.46831298648,2,Aisne,32.0,Hauts-de-France
2553,2150,Nizy-le-Comte,Nizy-le-Comte,49.574361853,4.03064818206,2,Aisne,32.0,Hauts-de-France
2554,2400,Nogentel,Nogentel,49.0140758623,3.40340404208,2,Aisne,32.0,Hauts-de-France
2555,2310,Nogent-l'Artaud,Nogent-l'Artaud,48.9426222247,3.332802902,2,Aisne,32.0,Hauts-de-France
2556,2340,Noircourt,Noircourt,49.6691648747,4.09433809595,2,Aisne,32.0,Hauts-de-France
2557,2600,Noroy-sur-Ourcq,Noroy-sur-Ourcq,49.2041824443,3.20698565652,2,Aisne,32.0,Hauts-de-France
2558,2170,Le Nouvion-en-Thiérache,Nouvion-en-Thiérache,50.0086867152,3.80929288198,2,Aisne,32.0,Hauts-de-France
2559,2270,Nouvion-et-Catillon,Nouvion-et-Catillon,49.7075667391,3.49359729343,2,Aisne,32.0,Hauts-de-France
2560,2800,Nouvion-le-Comte,Nouvion-le-Comte,49.7079830783,3.46084868911,2,Aisne,32.0,Hauts-de-France
2561,2860,Nouvion-le-Vineux,Nouvion-le-Vineux,49.5092763308,3.605351266,2,Aisne,32.0,Hauts-de-France
2562,2290,Nouvron-Vingré,Nouvron-Vingré,49.4333492,3.18803179842,2,Aisne,32.0,Hauts-de-France
2563,2120,Noyales,Noyales,49.9082559491,3.53848565514,2,Aisne,32.0,Hauts-de-France
2564,2200,Noyant-et-Aconin,Noyant-et-Aconin,49.3319620657,3.33416303776,2,Aisne,32.0,Hauts-de-France
2565,2160,Œuilly,Œuilly,49.3928856944,3.68222741301,2,Aisne,32.0,Hauts-de-France
2566,2300,Ognes,Ognes,49.6136864694,3.19142372904,2,Aisne,32.0,Hauts-de-France
2567,2500,Ohis,Ohis,49.9184307239,4.01170912127,2,Aisne,32.0,Hauts-de-France
2568,2600,Oigny-en-Valois,Oigny-en-Valois,49.2137237953,3.1302728623,2,Aisne,32.0,Hauts-de-France
2569,2450,Oisy,Oisy,50.0229089259,3.65273893683,2,Aisne,32.0,Hauts-de-France
2570,2480,Ollezy,Ollezy,49.729996536,3.14607261695,2,Aisne,32.0,Hauts-de-France
2571,2100,Omissy,Omissy,49.8804267246,3.29788036707,2,Aisne,32.0,Hauts-de-France
2572,2190,Orainville,Orainville,49.3759679828,4.01565856496,2,Aisne,32.0,Hauts-de-France
2573,2860,Orgeval,Orgeval,49.5041140764,3.70337016497,2,Aisne,32.0,Hauts-de-France
2574,2550,Origny-en-Thiérache,Origny-en-Thiérache,49.8861904623,4.01101149757,2,Aisne,32.0,Hauts-de-France
2575,2390,Origny-Sainte-Benoite,Origny-Sainte-Benoite,49.8268502674,3.52909324665,2,Aisne,32.0,Hauts-de-France
2576,2290,Osly-Courtil,Osly-Courtil,49.3995301311,3.23736511582,2,Aisne,32.0,Hauts-de-France
2577,2370,Ostel,Ostel,49.4299692983,3.56538871192,2,Aisne,32.0,Hauts-de-France
2578,2160,Oulches-la-Vallée-Foulon,Oulches-la-Vallée-Foulon,49.4311311984,3.73966290896,2,Aisne,32.0,Hauts-de-France
2579,2210,Oulchy-la-Ville,Oulchy-la-Ville,49.2098503819,3.34062520679,2,Aisne,32.0,Hauts-de-France
2580,2210,Oulchy-le-Château,Oulchy-le-Château,49.2070701806,3.38202413773,2,Aisne,32.0,Hauts-de-France
2581,2220,Paars,Paars,49.3302779346,3.60267922049,2,Aisne,32.0,Hauts-de-France
2582,2160,Paissy,Paissy,49.4263466952,3.7014989195,2,Aisne,32.0,Hauts-de-France
2583,2860,Pancy-Courtecon,Pancy-Courtecon,49.4606885919,3.64987795196,2,Aisne,32.0,Hauts-de-France
2584,2260,Papleux,Papleux,50.0169167744,3.88023781289,2,Aisne,32.0,Hauts-de-France
2585,2210,Parcy-et-Tigny,Parcy-et-Tigny,49.2703704352,3.32906709704,2,Aisne,32.0,Hauts-de-France
2586,2360,Parfondeval,Parfondeval,49.7443573688,4.16145285338,2,Aisne,32.0,Hauts-de-France
2587,2840,Parfondru,Parfondru,49.5385213412,3.70351915315,2,Aisne,32.0,Hauts-de-France
2588,2160,Pargnan,Pargnan,49.3942391486,3.70308940891,2,Aisne,32.0,Hauts-de-France
2589,2000,Pargny-Filain,Pargny-Filain,49.4629055692,3.53929108659,2,Aisne,32.0,Hauts-de-France
2590,2330,Pargny-la-Dhuys,Pargny-la-Dhuys,48.9545509576,3.56357370593,2,Aisne,32.0,Hauts-de-France
2591,2270,Pargny-les-Bois,Pargny-les-Bois,49.7323072713,3.61788330529,2,Aisne,32.0,Hauts-de-France
2592,2240,Parpeville,Parpeville,49.7943758027,3.56422835389,2,Aisne,32.0,Hauts-de-France
2593,2200,Pasly,Pasly,49.4022800131,3.29799527999,2,Aisne,32.0,Hauts-de-France
2594,2470,Passy-en-Valois,Passy-en-Valois,49.1621618332,3.18418881622,2,Aisne,32.0,Hauts-de-France
2595,2850,Passy-sur-Marne,Passy-sur-Marne,49.0663377762,3.57438808256,2,Aisne,32.0,Hauts-de-France
2596,2310,Pavant,Pavant,48.9528924605,3.28390382889,2,Aisne,32.0,Hauts-de-France
2598,2200,Pernant,Pernant,49.3756522114,3.23031459047,2,Aisne,32.0,Hauts-de-France
2599,2300,Pierremande,Pierremande,49.566550412,3.25836777343,2,Aisne,32.0,Hauts-de-France
2600,2350,Pierrepont,Pierrepont,49.6482784601,3.78777546723,2,Aisne,32.0,Hauts-de-France
2601,2190,Pignicourt,Pignicourt,49.4091910952,4.0300596148,2,Aisne,32.0,Hauts-de-France
2602,2320,Pinon,Pinon,49.488480349,3.46156583024,2,Aisne,32.0,Hauts-de-France
2604,2480,Pithon,Pithon,49.7562365167,3.10422093946,2,Aisne,32.0,Hauts-de-France
2605,2240,Pleine-Selve,Pleine-Selve,49.7965883398,3.5260425643,2,Aisne,32.0,Hauts-de-France
2606,2210,Le Plessier-Huleu,Plessier-Huleu,49.2388752756,3.34814266149,2,Aisne,32.0,Hauts-de-France
2607,2200,Ploisy,Ploisy,49.330941238,3.27456677749,2,Aisne,32.0,Hauts-de-France
2608,2140,Plomion,Plomion,49.8188816623,4.01999597737,2,Aisne,32.0,Hauts-de-France
2609,2860,Ployart-et-Vaurseine,Ployart-et-Vaurseine,49.493253698,3.74014252866,2,Aisne,32.0,Hauts-de-France
2610,2200,Pommiers,Pommiers,49.3921873782,3.27884937169,2,Aisne,32.0,Hauts-de-France
2612,2160,Pont-Arcy,Pont-Arcy,49.391846031,3.62003836186,2,Aisne,32.0,Hauts-de-France
2613,2160,Pontavert,Pontavert,49.4176198194,3.82051815377,2,Aisne,32.0,Hauts-de-France
2614,2490,Pontru,Pontru,49.921599489,3.20120191987,2,Aisne,32.0,Hauts-de-France
2615,2490,Pontruet,Pontruet,49.9148506173,3.2294738031,2,Aisne,32.0,Hauts-de-France
2616,2380,Pont-Saint-Mard,Pont-Saint-Mard,49.493979148,3.27934093822,2,Aisne,32.0,Hauts-de-France
2617,2270,Pouilly-sur-Serre,Pouilly-sur-Serre,49.6778615755,3.58559308314,2,Aisne,32.0,Hauts-de-France
2618,2110,Prémont,Prémont,50.0143067533,3.39725258008,2,Aisne,32.0,Hauts-de-France
2619,2320,Prémontré,Prémontré,49.5493580112,3.4177638358,2,Aisne,32.0,Hauts-de-France
2620,2370,Presles-et-Boves,Presles-et-Boves,49.3900726835,3.54013980029,2,Aisne,32.0,Hauts-de-France
2621,2860,Presles-et-Thierny,Presles-et-Thierny,49.5144603614,3.62483361601,2,Aisne,32.0,Hauts-de-France
2622,2470,Priez,Priez,49.1306197467,3.26280717645,2,Aisne,32.0,Hauts-de-France
2623,2140,Prisces,Prisces,49.7721688271,3.86274146906,2,Aisne,32.0,Hauts-de-France
2624,2120,Proisy,Proisy,49.8906172484,3.75241120947,2,Aisne,32.0,Hauts-de-France
2625,2120,Proix,Proix,49.9022161869,3.57346862626,2,Aisne,32.0,Hauts-de-France
2626,2190,Prouvais,Prouvais,49.4760906978,3.97215349857,2,Aisne,32.0,Hauts-de-France
2627,2190,Proviseux-et-Plesnoy,Proviseux-et-Plesnoy,49.4777224772,4.0158784311,2,Aisne,32.0,Hauts-de-France
2628,2600,Puiseux-en-Retz,Puiseux-en-Retz,49.2925861417,3.13448879571,2,Aisne,32.0,Hauts-de-France
2629,2120,Puisieux-et-Clanlieu,Puisieux-et-Clanlieu,49.8472444334,3.66367663689,2,Aisne,32.0,Hauts-de-France
2631,2300,Quierzy,Quierzy,49.5641090409,3.14613795931,2,Aisne,32.0,Hauts-de-France
2632,2380,Quincy-Basse,Quincy-Basse,49.5091437001,3.38465364189,2,Aisne,32.0,Hauts-de-France
2633,2220,Quincy-sous-le-Mont,Quincy-sous-le-Mont,49.3082323924,3.55906421912,2,Aisne,32.0,Hauts-de-France
2634,2360,Raillimont,Raillimont,49.701759318,4.15934737957,2,Aisne,32.0,Hauts-de-France
2635,2110,Ramicourt,Ramicourt,49.9579684711,3.33105686967,2,Aisne,32.0,Hauts-de-France
2636,2240,Regny,Regny,49.8343070304,3.42061400129,2,Aisne,32.0,Hauts-de-France
2637,2100,Remaucourt,Remaucourt,49.8954350618,3.34948034131,2,Aisne,32.0,Hauts-de-France
2638,2270,Remies,Remies,49.6793679757,3.52478064261,2,Aisne,32.0,Hauts-de-France
2639,2440,Remigny,Remigny,49.7141625709,3.29518707017,2,Aisne,32.0,Hauts-de-France
2640,2240,Renansart,Renansart,49.7340931411,3.45338513198,2,Aisne,32.0,Hauts-de-France
2641,2340,Renneval,Renneval,49.7391714019,4.03674170066,2,Aisne,32.0,Hauts-de-France
2642,2360,Résigny,Résigny,49.7413860683,4.21000271409,2,Aisne,32.0,Hauts-de-France
2643,2290,Ressons-le-Long,Ressons-le-Long,49.3881779495,3.1411755288,2,Aisne,32.0,Hauts-de-France
2644,2600,Retheuil,Retheuil,49.318909114,3.00378064988,2,Aisne,32.0,Hauts-de-France
2645,2850,Reuilly-Sauvigny,Reuilly-Sauvigny,49.0506024106,3.56448771259,2,Aisne,32.0,Hauts-de-France
2647,2110,Ribeauville,Ribeauville,50.0366991182,3.58754496166,2,Aisne,32.0,Hauts-de-France
2648,2240,Ribemont,Ribemont,49.7885436581,3.47018526049,2,Aisne,32.0,Hauts-de-France
2649,2210,Rocourt-Saint-Martin,Rocourt-Saint-Martin,49.1453872803,3.3891401292,2,Aisne,32.0,Hauts-de-France
2650,2260,Rocquigny,Rocquigny,50.0193341952,3.97342250903,2,Aisne,32.0,Hauts-de-France
2651,2800,Rogécourt,Rogécourt,49.6492919859,3.41550074354,2,Aisne,32.0,Hauts-de-France
2652,2140,Rogny,Rogny,49.766712979,3.82104672788,2,Aisne,32.0,Hauts-de-France
2653,2310,Romeny-sur-Marne,Romeny-sur-Marne,48.9852721229,3.3344209065,2,Aisne,32.0,Hauts-de-France
2654,2120,Romery,Romery,49.8882844958,3.73266627848,2,Aisne,32.0,Hauts-de-France
2655,2130,Ronchères,Ronchères,49.1398358197,3.60245169493,2,Aisne,32.0,Hauts-de-France
2656,2160,Roucy,Roucy,49.3745878159,3.82024502091,2,Aisne,32.0,Hauts-de-France
2657,2140,Rougeries,Rougeries,49.8056045885,3.78694787331,2,Aisne,32.0,Hauts-de-France
2658,2590,Roupy,Roupy,49.8120572031,3.18195896491,2,Aisne,32.0,Hauts-de-France
2659,2100,Rouvroy,Rouvroy,49.8579447094,3.33298681219,2,Aisne,32.0,Hauts-de-France
2660,2360,Rouvroy-sur-Serre,Rouvroy-sur-Serre,49.7153670931,4.17597798145,2,Aisne,32.0,Hauts-de-France
2661,2000,Royaucourt-et-Chailvet,Royaucourt-et-Chailvet,49.5119671872,3.53821206051,2,Aisne,32.0,Hauts-de-France
2662,2210,Rozet-Saint-Albin,Rozet-Saint-Albin,49.1982180685,3.29738760461,2,Aisne,32.0,Hauts-de-France
2663,2200,Rozières-sur-Crise,Rozières-sur-Crise,49.3227443516,3.37101592804,2,Aisne,32.0,Hauts-de-France
2664,2540,Rozoy-Bellevalle,Rozoy-Bellevalle,48.9244622578,3.45003603667,2,Aisne,32.0,Hauts-de-France
2665,2210,Grand-Rozoy,Grand-Rozoy,49.2423109815,3.38147360131,2,Aisne,32.0,Hauts-de-France
2666,2360,Rozoy-sur-Serre,Rozoy-sur-Serre,49.706447861,4.13134010865,2,Aisne,32.0,Hauts-de-France
2667,2200,Saconin-et-Breuil,Saconin-et-Breuil,49.3506902358,3.24672146323,2,Aisne,32.0,Hauts-de-France
2668,2120,Sains-Richaumont,Sains-Richaumont,49.8276068685,3.70490926861,2,Aisne,32.0,Hauts-de-France
2670,2260,Saint-Algis,Saint-Algis,49.8944330304,3.82546447463,2,Aisne,32.0,Hauts-de-France
2671,2300,Saint-Aubin,Saint-Aubin,49.5099540337,3.18837580055,2,Aisne,32.0,Hauts-de-France
2672,2290,Saint-Bandry,Saint-Bandry,49.3638994868,3.14949009826,2,Aisne,32.0,Hauts-de-France
2673,2290,Saint-Christophe-à-Berry,Saint-Christophe-à-Berry,49.4290499245,3.12949472733,2,Aisne,32.0,Hauts-de-France
2674,2360,Saint-Clément,Saint-Clément,49.7752799579,4.07288901165,2,Aisne,32.0,Hauts-de-France
2675,2820,Sainte-Croix,Sainte-Croix,49.4800538584,3.78129682642,2,Aisne,32.0,Hauts-de-France
2676,2820,Saint-Erme-Outre-et-Ramecourt,Saint-Erme-Outre-et-Ramecourt,49.5182833727,3.86386406835,2,Aisne,32.0,Hauts-de-France
2677,2330,Saint-Eugène,Saint-Eugène,49.0155450781,3.51721331428,2,Aisne,32.0,Hauts-de-France
2678,2340,Sainte-Geneviève,Sainte-Geneviève,49.7247039611,4.07368196391,2,Aisne,32.0,Hauts-de-France
2679,2810,Saint-Gengoulph,Saint-Gengoulph,49.1189499126,3.21526676033,2,Aisne,32.0,Hauts-de-France
2680,2410,Saint-Gobain,Saint-Gobain,49.5953887213,3.39411143672,2,Aisne,32.0,Hauts-de-France
2681,2140,Saint-Gobert,Saint-Gobert,49.8037605968,3.83219152047,2,Aisne,32.0,Hauts-de-France
2682,2220,Saint-Mard,Saint-Mard,49.3813338634,3.58902035004,2,Aisne,32.0,Hauts-de-France
2683,2110,Saint-Martin-Rivière,Saint-Martin-Rivière,50.044008328,3.55486334419,2,Aisne,32.0,Hauts-de-France
2684,2830,Saint-Michel,Saint-Michel,49.9259700696,4.15288229364,2,Aisne,32.0,Hauts-de-France
